NAME,TYPE,LOCATION,TAG,Unnamed: 4,Unnamed: 5,Unnamed: 6,Unnamed: 7,Unnamed: 8,Unnamed: 9,Unnamed: 10,Unnamed: 11,Unnamed: 12,Unnamed: 13,LAT,LON
월드헬스클럽,헬스/휘트니스,서울특별시 중구 충무로2가 퇴계로,스트레스 해소; 감정 자극,,,,,,,,,,,,
양재남여헬스,헬스/휘트니스,서울특별시 강남구 도곡동 남부순환로351길,스트레스 해소; 감정 자극,,,,,,,,,,,,
우성헬스,헬스/휘트니스,서울특별시 동대문구 신설동 왕산로,스트레스 해소; 감정 자극,,,,,,,,,,,37.5758417,127.0236765
라이브헬스클럽,헬스/휘트니스,서울특별시 노원구 상계동 동일로,스트레스 해소; 감정 자극,,,,,,,,,,,,
중앙24시헬스,헬스/휘트니스,서울특별시 서대문구 북아현동 북아현로,스트레스 해소; 감정 자극,,,,,,,,,,,37.563293,126.9547724
원헬스클럽,헬스/휘트니스,서울특별시 강서구 화곡동 월정로30길,스트레스 해소; 감정 자극,,,,,,,,,,,,
유토피아헬스,헬스/휘트니스,서울특별시 강남구 역삼동 테헤란로14길,스트레스 해소; 감정 자극,,,,,,,,,,,,
삼성헬스,헬스/휘트니스,서울특별시 광진구 중곡동 천호대로,스트레스 해소; 감정 자극,,,,,,,,,,,,
헬스토피아,헬스/휘트니스,서울특별시 구로구 오류동 오류로8길,스트레스 해소; 감정 자극,,,,,,,,,,,37.4921777,126.8433946
휘트니스센터,헬스/휘트니스,서울특별시 중구 충무로1가 명동8나길,스트레스 해소; 감정 자극,,,,,,,,,,,37.5612962,126.9832412
영파워헬스클럽,헬스/휘트니스,서울특별시 강남구 역삼동 논현로94길,스트레스 해소; 감정 자극,,,,,,,,,,,,
동방헬스,헬스/휘트니스,서울특별시 성북구 장위동 장위로,스트레스 해소; 감정 자극,,,,,,,,,,,37.6137685,127.0517249
에너지플러스,헬스/휘트니스,서울특별시 강남구 청담동 선릉로,스트레스 해소; 감정 자극,,,,,,,,,,,37.5231877,127.0391653
동방헬스센터,헬스/휘트니스,서울특별시 관악구 신림동 호암로26길,스트레스 해소; 감정 자극,,,,,,,,,,,,
진여성전용휘트니스,헬스/휘트니스,서울특별시 마포구 합정동 월드컵로,스트레스 해소; 감정 자극,,,,,,,,,,,37.5494977,126.9132614
헬스아카데미,헬스/휘트니스,서울특별시 도봉구 방학동 방학로,스트레스 해소; 감정 자극,,,,,,,,,,,,
철인남녀헬스,헬스/휘트니스,서울특별시 서대문구 남가좌동 수색로,스트레스 해소; 감정 자극,,,,,,,,,,,,
신사헬스클럽,헬스/휘트니스,서울특별시 강남구 신사동 강남대로152길,스트레스 해소; 감정 자극,,,,,,,,,,,37.5187492,127.0241275
그린헬스,헬스/휘트니스,서울특별시 중랑구 중화동 중랑역로,스트레스 해소; 감정 자극,,,,,,,,,,,37.5943804,127.0771237
우진헬스클럽,헬스/휘트니스,서울특별시 종로구 종로6가 종로41길,스트레스 해소; 감정 자극,,,,,,,,,,,37.572777,127.0066709
가양헬스,헬스/휘트니스,서울특별시 강서구 가양동 양천로49길,스트레스 해소; 감정 자극,,,,,,,,,,,,
한남헬스,헬스/휘트니스,서울특별시 용산구 한남동 대사관로31길,스트레스 해소; 감정 자극,,,,,,,,,,,37.5342019,127.0048434
동아헬스,헬스/휘트니스,서울특별시 성북구 하월곡동 동소문로,스트레스 해소; 감정 자극,,,,,,,,,,,,
동산헬스,헬스/휘트니스,서울특별시 동대문구 전농동 전농로,스트레스 해소; 감정 자극,,,,,,,,,,,37.5767643,127.0576969
헬스클럽,헬스/휘트니스,서울특별시 강남구 논현동 강남대로122길,스트레스 해소; 감정 자극,,,,,,,,,,,37.5090303,127.025855
무지개헬스클럽,헬스/휘트니스,서울특별시 마포구 성산동 월드컵북로,스트레스 해소; 감정 자극,,,,,,,,,,,37.5690037,126.9045248
위너스헬스,헬스/휘트니스,서울특별시 광진구 구의동 자양로22길,스트레스 해소; 감정 자극,,,,,,,,,,,,
용마헬스클럽,헬스/휘트니스,서울특별시 중랑구 면목동 면목로,스트레스 해소; 감정 자극,,,,,,,,,,,37.5816841,127.0886238
신흥남녀헬스,헬스/휘트니스,서울특별시 광진구 구의동 아차산로,스트레스 해소; 감정 자극,,,,,,,,,,,,
도림신협헬스,헬스/휘트니스,서울특별시 영등포구 신길동 신길로,스트레스 해소; 감정 자극,,,,,,,,,,,,
펌프헬스클럽,헬스/휘트니스,서울특별시 양천구 목동 목동중앙로,스트레스 해소; 감정 자극,,,,,,,,,,,37.5357127,126.8704635
쌍호헬스클럽,헬스/휘트니스,서울특별시 마포구 망원동 월드컵로,스트레스 해소; 감정 자극,,,,,,,,,,,,
챠밍헬스클럽,헬스/휘트니스,서울특별시 성북구 동선동1가 동소문로,스트레스 해소; 감정 자극,,,,,,,,,,,37.5935458,127.017058
종로헬스,헬스/휘트니스,서울특별시 종로구 관철동 삼일대로17길,스트레스 해소; 감정 자극,,,,,,,,,,,37.5691738,126.9860324
창신헬스클럽,헬스/휘트니스,서울특별시 종로구 창신동 창신길,스트레스 해소; 감정 자극,,,,,,,,,,,,
라이프남여헬스,헬스/휘트니스,서울특별시 양천구 신월동 신월로,스트레스 해소; 감정 자극,,,,,,,,,,,,
고려헬스,헬스/휘트니스,서울특별시 동대문구 제기동 안암로24길,스트레스 해소; 감정 자극,,,,,,,,,,,37.588269,127.0359904
유진헬스크럽,헬스/휘트니스,서울특별시 동작구 대방동 등용로,스트레스 해소; 감정 자극,,,,,,,,,,,37.505551,126.9342135
그랜드헬스클럽,헬스/휘트니스,서울특별시 용산구 보광동 장문로,스트레스 해소; 감정 자극,,,,,,,,,,,37.5267047,127.002788
스타헬스,헬스/휘트니스,서울특별시 동대문구 전농동 전농로,스트레스 해소; 감정 자극,,,,,,,,,,,37.5767643,127.0576969
한양남여헬스,헬스/휘트니스,서울특별시 동대문구 청량리동 홍릉로,스트레스 해소; 감정 자극,,,,,,,,,,,37.5834824,127.0441365
한양헬스,헬스/휘트니스,서울특별시 노원구 상계동 동일로217가길,스트레스 해소; 감정 자극,,,,,,,,,,,,
대도헬스클럽,헬스/휘트니스,서울특별시 중랑구 면목동 사가정로,스트레스 해소; 감정 자극,,,,,,,,,,,37.5810816,127.0843842
자양헬스타운,헬스/휘트니스,서울특별시 광진구 자양동 자양로15길,스트레스 해소; 감정 자극,,,,,,,,,,,,
유성헬스크럽,헬스/휘트니스,서울특별시 강남구 논현동 봉은사로1길,스트레스 해소; 감정 자극,,,,,,,,,,,37.5055742,127.0249179
코리아헬스,헬스/휘트니스,서울특별시 광진구 군자동 천호대로102길,스트레스 해소; 감정 자극,,,,,,,,,,,37.5575292,127.0735504
바위헬스,헬스/휘트니스,서울특별시 양천구 신월동 월정로,스트레스 해소; 감정 자극,,,,,,,,,,,37.532924,126.8363283
파워헬스,헬스/휘트니스,서울특별시 도봉구 창동 마들로11길,스트레스 해소; 감정 자극,,,,,,,,,,,,
라인헬스클럽,헬스/휘트니스,서울특별시 노원구 상계동 노해로,스트레스 해소; 감정 자극,,,,,,,,,,,,
라인짐휘트니스,헬스/휘트니스,서울특별시 강북구 번동 한천로109길,스트레스 해소; 감정 자극,,,,,,,,,,,,
한미헬스피아,헬스/휘트니스,서울특별시 용산구 한남동 대사관로34길,스트레스 해소; 감정 자극,,,,,,,,,,,37.5316672,127.0057043
성미헬스,헬스/휘트니스,서울특별시 마포구 망원동 월드컵로,스트레스 해소; 감정 자극,,,,,,,,,,,,
파워헬스클럽,헬스/휘트니스,서울특별시 서초구 서초동 서초중앙로6길,스트레스 해소; 감정 자극,,,,,,,,,,,37.4861424,127.0173723
고덕헬스클럽,헬스/휘트니스,서울특별시 강동구 명일동 양재대로,스트레스 해소; 감정 자극,,,,,,,,,,,,
킹헬스토피아,헬스/휘트니스,서울특별시 송파구 방이동 백제고분로48길,스트레스 해소; 감정 자극,,,,,,,,,,,37.511167,127.114537
캘리포니아,헬스/휘트니스,서울특별시 강남구 청담동 선릉로,스트레스 해소; 감정 자극,,,,,,,,,,,37.5231877,127.0391653
충암스포츠센터,스포츠센터,서울특별시 서대문구 남가좌동 명지대길,에너지 회복; 스트레스 해소,,,,,,,,,,,37.5830286,126.9233761
대성스포츠센터,스포츠센터,서울특별시 광진구 중곡동 용마산로,에너지 회복; 스트레스 해소,,,,,,,,,,,37.5633231,127.0869713
우창볼링센터,볼링장,서울특별시 동대문구 휘경동 망우로,스트레스 해소; 감정 자극,,,,,,,,,,,37.5899957,127.0624325
신내중앙체육관,지역실내체육관,서울특별시 중랑구 신내동 용마산로129나길,에너지 회복; 스트레스 해소,,,,,,,,,,,,
보스턴볼링,볼링장,서울특별시 동대문구 휘경동 회기로28길,스트레스 해소; 감정 자극,,,,,,,,,,,,
에이스볼링장,볼링장,서울특별시 구로구 개봉동 경서로,스트레스 해소; 감정 자극,,,,,,,,,,,,
길동볼링센터,볼링장,서울특별시 강동구 길동 양재대로,스트레스 해소; 감정 자극,,,,,,,,,,,37.5375025,127.1398729
한산체육관,지역실내체육관,서울특별시 강동구 둔촌동 명일로,에너지 회복; 스트레스 해소,,,,,,,,,,,37.5324351,127.1441069
전농체육관,지역실내체육관,서울특별시 동대문구 전농동 전농로23길,에너지 회복; 스트레스 해소,,,,,,,,,,,37.5788448,127.0534646
삼창수영장,일반수영장,서울특별시 노원구 중계동 한글비석로,에너지 회복; 안정감,,,,,,,,,,,,
현대체육관,지역실내체육관,서울특별시 은평구 구산동 서오릉로,에너지 회복; 스트레스 해소,,,,,,,,,,,37.6129309,126.9137875
현대태권도,지역실내체육관,서울특별시 영등포구 양평동3가 선유동2로,에너지 회복; 스트레스 해소,,,,,,,,,,,,
전우체육관,지역실내체육관,서울특별시 노원구 상계동 한글비석로24길,에너지 회복; 스트레스 해소,,,,,,,,,,,37.6629079,127.0725669
제일체육관,지역실내체육관,서울특별시 중랑구 신내동 신내로7길,에너지 회복; 스트레스 해소,,,,,,,,,,,,
마을종합체육관,지역실내체육관,서울특별시 강동구 성내동 올림픽로,에너지 회복; 스트레스 해소,,,,,,,,,,,37.5313695,127.1208518
양천구민체육관,지역실내체육관,서울특별시 양천구 신정동 목동동로,에너지 회복; 스트레스 해소,,,,,,,,,,,,
그랜드볼링센터,볼링장,서울특별시 금천구 가산동 가산로9길,스트레스 해소; 감정 자극,,,,,,,,,,,37.4766687,126.8906247
나토얀체육관,지역실내체육관,서울특별시 양천구 목동 목동중앙본로,에너지 회복; 스트레스 해소,,,,,,,,,,,,
서울특별시교육청학생체육관,대형실내체육관,서울특별시 송파구 잠실동 올림픽로,에너지 회복; 스트레스 해소,,,,,,,,,,,37.5115211,127.0757714
구로볼링센터,볼링장,서울특별시 구로구 구로동 디지털로32나길,스트레스 해소; 감정 자극,,,,,,,,,,,,
구로구민생활체육관,지역실내체육관,서울특별시 구로구 구로동 새말로18길,에너지 회복; 스트레스 해소,,,,,,,,,,,,
동문체육관,지역실내체육관,서울특별시 동대문구 장안동 장한로26다길,에너지 회복; 스트레스 해소,,,,,,,,,,,37.5671666,127.071135
혜성체육관,지역실내체육관,서울특별시 중랑구 망우동 용마산로99길,에너지 회복; 스트레스 해소,,,,,,,,,,,,
건국체육관,지역실내체육관,서울특별시 동대문구 장안동 한천로40길,에너지 회복; 스트레스 해소,,,,,,,,,,,,
세종볼링센터,볼링장,서울특별시 종로구 내수동 새문안로3길,스트레스 해소; 감정 자극,,,,,,,,,,,37.5729873,126.9726494
종합체육관,지역실내체육관,서울특별시 성동구 금호동4가 독서당로46가길,에너지 회복; 스트레스 해소,,,,,,,,,,,37.5476621,127.0211345
KBS스포츠월드,지역실내체육관,서울특별시 강서구 화곡동 공항대로,에너지 회복; 스트레스 해소,,,,,,,,,,,,
화랑체육관,지역실내체육관,서울특별시 동대문구 휘경동 전농로38길,에너지 회복; 스트레스 해소,,,,,,,,,,,,
진리체육관,지역실내체육관,서울특별시 서대문구 남가좌동 명지대길,에너지 회복; 스트레스 해소,,,,,,,,,,,37.5830286,126.9233761
우성스포닉센터,스포츠센터,서울특별시 동작구 신대방동 여의대방로,에너지 회복; 스트레스 해소,,,,,,,,,,,37.4967762,126.9159857
태릉선수촌개선관,지역실내체육관,서울특별시 노원구 공릉동 화랑로,에너지 회복; 스트레스 해소,,,,,,,,,,,37.6317176,127.1005228
우정체육관,지역실내체육관,서울특별시 은평구 응암동 은평로10길,에너지 회복; 스트레스 해소,,,,,,,,,,,,
태성체육관,지역실내체육관,서울특별시 성북구 석관동 돌곶이로14길,에너지 회복; 스트레스 해소,,,,,,,,,,,37.6092182,127.0621339
올림픽공원역도경기장,일반경기장,서울특별시 송파구 방이동 올림픽로,에너지 회복; 스트레스 해소,,,,,,,,,,,,
올림픽공원KSPODOME,일반경기장,서울특별시 송파구 방이동 올림픽로,에너지 회복; 스트레스 해소,,,,,,,,,,,,
올림픽공원올림픽수영장,일반경기장,서울특별시 송파구 방이동 올림픽로,에너지 회복; 스트레스 해소,,,,,,,,,,,,
곰두리체육센터,스포츠센터,서울특별시 송파구 오금동 동남로,에너지 회복; 스트레스 해소,,,,,,,,,,,37.5056449,127.1391853
올림픽공원SK올림픽핸드볼경기장,일반경기장,서울특별시 송파구 방이동 올림픽로,에너지 회복; 스트레스 해소,,,,,,,,,,,,
위너스볼링장,볼링장,서울특별시 금천구 독산동 시흥대로,스트레스 해소; 감정 자극,,,,,,,,,,,37.4669034,126.8978902
대청레포츠센터,스포츠센터,서울특별시 강남구 개포동 개포로,에너지 회복; 스트레스 해소,,,,,,,,,,,37.489715,127.0695778
용성스포츠센터,스포츠센터,서울특별시 동대문구 전농동 사가정로,에너지 회복; 스트레스 해소,,,,,,,,,,,37.5747671,127.0536195
개운스포츠센터,스포츠센터,서울특별시 성북구 종암동 북악산로,에너지 회복; 스트레스 해소,,,,,,,,,,,37.5995928,127.0266999
신사스포츠센터,스포츠센터,서울특별시 서초구 잠원동 나루터로,에너지 회복; 스트레스 해소,,,,,,,,,,,37.5161333,127.0120671
동천빙상경기장,지역실내체육관,서울특별시 노원구 하계동 노원로18길,에너지 회복; 스트레스 해소,,,,,,,,,,,37.6438142,127.0734347
영헬스클럽,헬스/휘트니스,서울특별시 성동구 성수동2가 광나루로,스트레스 해소; 감정 자극,,,,,,,,,,,,
일흥스포타운,스포츠센터,서울특별시 서초구 서초동 명달로,에너지 회복; 스트레스 해소,,,,,,,,,,,,
청학스포츠타운,스포츠센터,서울특별시 양천구 목동 오목로,에너지 회복; 스트레스 해소,,,,,,,,,,,,
마곡배드민턴장,일반경기장,서울특별시 강서구 마곡동 양천로,에너지 회복; 스트레스 해소,,,,,,,,,,,,
서대문체육관,스포츠센터,서울특별시 서대문구 홍은동 백련사길,에너지 회복; 스트레스 해소,,,,,,,,,,,,
유니온휘트니스,헬스/휘트니스,서울특별시 동대문구 장안동 장한로,스트레스 해소; 감정 자극,,,,,,,,,,,,
크리스탈수영장,일반수영장,서울특별시 강남구 신사동 압구정로,에너지 회복; 안정감,,,,,,,,,,,37.5236257,127.0215285
잠실카트체험장,일반경기장,서울특별시 송파구 잠실동 ,에너지 회복; 스트레스 해소,,,,,,,,,,,37.5122807,127.0855986
골드수영장,일반수영장,서울특별시 광진구 광장동 아차산로78길,에너지 회복; 안정감,,,,,,,,,,,37.5509773,127.1108714
싸이헬스,헬스/휘트니스,서울특별시 은평구 역촌동 서오릉로7길,스트레스 해소; 감정 자극,,,,,,,,,,,37.60662,126.9213722
로얄당구장,당구장,서울특별시 송파구 삼전동 삼학사로19길,스트레스 해소; 감정 자극,,,,,,,,,,,37.5062041,127.0942154
힐스포파크,헬스/휘트니스,서울특별시 동대문구 답십리동 답십리로,스트레스 해소; 감정 자극,,,,,,,,,,,37.5747327,127.0499421
성은헬스클럽,헬스/휘트니스,서울특별시 서대문구 북가좌동 증가로,스트레스 해소; 감정 자극,,,,,,,,,,,37.5813203,126.9151431
밀레니엄골프클럽,실내골프/스크린골프,서울특별시 송파구 잠실동 올림픽로4길,에너지 회복; 스트레스 해소,,,,,,,,,,,,
서울레포츠센터,스포츠센터,서울특별시 강동구 고덕동 고덕로,에너지 회복; 스트레스 해소,,,,,,,,,,,37.556037,127.1455687
한경스포렉스,헬스/휘트니스,서울특별시 서초구 반포동 신반포로,스트레스 해소; 감정 자극,,,,,,,,,,,37.5044399,126.9996177
르메이에르헬스,헬스/휘트니스,서울특별시 관악구 남현동 과천대로,스트레스 해소; 감정 자극,,,,,,,,,,,37.4644544,126.9881404
화인헬스,헬스/휘트니스,서울특별시 광진구 구의동 자양로,스트레스 해소; 감정 자극,,,,,,,,,,,37.5482638,127.0888426
만영헬스,헬스/휘트니스,서울특별시 서대문구 홍은동 모래내로,스트레스 해소; 감정 자극,,,,,,,,,,,,
동우헬스,헬스/휘트니스,서울특별시 성동구 용답동 천호대로,스트레스 해소; 감정 자극,,,,,,,,,,,37.5718615,127.0440633
현대프라임스포츠센터,스포츠센터,서울특별시 광진구 구의동 광나루로56길,에너지 회복; 스트레스 해소,,,,,,,,,,,,
우성남여헬스,헬스/휘트니스,서울특별시 노원구 공릉동 동일로197길,스트레스 해소; 감정 자극,,,,,,,,,,,,
영헬스센터,헬스/휘트니스,서울특별시 서대문구 북가좌동 응암로,스트레스 해소; 감정 자극,,,,,,,,,,,37.5852314,126.915723
뉴금천휘트니스,헬스/휘트니스,서울특별시 금천구 시흥동 독산로54길,스트레스 해소; 감정 자극,,,,,,,,,,,,
대성휘트니스,헬스/휘트니스,서울특별시 광진구 중곡동 용마산로,스트레스 해소; 감정 자극,,,,,,,,,,,37.5633231,127.0869713
대지스포츠,스포츠센터,서울특별시 서초구 서초동 서운로,에너지 회복; 스트레스 해소,,,,,,,,,,,,
라이프포유,스포츠센터,서울특별시 노원구 공릉동 동일로180길,에너지 회복; 스트레스 해소,,,,,,,,,,,,
목동스포츠센터,스포츠센터,서울특별시 양천구 목동 목동서로,에너지 회복; 스트레스 해소,,,,,,,,,,,37.5316107,126.8751281
현대스포츠클럽,스포츠센터,서울특별시 서초구 방배동 방배로,에너지 회복; 스트레스 해소,,,,,,,,,,,37.4783113,126.9997061
VIP휘트니스,헬스/휘트니스,서울특별시 마포구 동교동 월드컵북로,스트레스 해소; 감정 자극,,,,,,,,,,,37.5567685,126.9196652
삼창스포츠센터,스포츠센터,서울특별시 노원구 중계동 한글비석로,에너지 회복; 스트레스 해소,,,,,,,,,,,,
동진카운티스포츠센터,스포츠센터,서울특별시 영등포구 신길동 여의대방로61길,에너지 회복; 스트레스 해소,,,,,,,,,,,,
뉴서울헬스클럽,헬스/휘트니스,서울특별시 동대문구 장안동 장한로5길,스트레스 해소; 감정 자극,,,,,,,,,,,37.5650024,127.064404
장안헬스,헬스/휘트니스,서울특별시 성동구 금호동2가 무수막길,스트레스 해소; 감정 자극,,,,,,,,,,,37.5508993,127.0231793
종로헬스클럽,헬스/휘트니스,서울특별시 종로구 숭인동 종로,스트레스 해소; 감정 자극,,,,,,,,,,,37.5736453,127.0165769
올림픽공원스포츠센터,스포츠센터,서울특별시 송파구 방이동 올림픽로,에너지 회복; 스트레스 해소,,,,,,,,,,,,
건우헬스클럽,헬스/휘트니스,서울특별시 서대문구 남가좌동 증가로,스트레스 해소; 감정 자극,,,,,,,,,,,37.5766818,126.9155933
스톤희트니스,헬스/휘트니스,서울특별시 송파구 잠실동 백제고분로,스트레스 해소; 감정 자극,,,,,,,,,,,37.5142763,127.077649
스타디움볼링센터,볼링장,서울특별시 강남구 삼성동 봉은사로114길,스트레스 해소; 감정 자극,,,,,,,,,,,,
럭키볼링센터,볼링장,서울특별시 강북구 번동 한천로,스트레스 해소; 감정 자극,,,,,,,,,,,37.6315714,127.0400311
현대스포츠센터,스포츠센터,서울특별시 중랑구 신내동 용마산로129나길,에너지 회복; 스트레스 해소,,,,,,,,,,,,
동서울헬스,헬스/휘트니스,서울특별시 강동구 암사동 올림픽로,스트레스 해소; 감정 자극,,,,,,,,,,,37.5585235,127.1306295
성신볼링장,볼링장,서울특별시 성북구 동선동1가 보문로34길,스트레스 해소; 감정 자극,,,,,,,,,,,37.5909355,127.0191774
로즈헬스클럽,헬스/휘트니스,서울특별시 송파구 오금동 마천로,스트레스 해소; 감정 자극,,,,,,,,,,,37.5073421,127.1289918
태화볼링센터,볼링장,서울특별시 마포구 서교동 와우산로,스트레스 해소; 감정 자극,,,,,,,,,,,37.5564843,126.9309958
청남볼링센터,볼링장,서울특별시 서초구 방배동 동작대로,스트레스 해소; 감정 자극,,,,,,,,,,,,
비원볼링센터,볼링장,서울특별시 종로구 원서동 창덕궁1길,스트레스 해소; 감정 자극,,,,,,,,,,,37.5792731,126.9888968
코끼리볼링장,볼링장,서울특별시 중구 주자동 퇴계로,스트레스 해소; 감정 자극,,,,,,,,,,,,
석촌볼링장,볼링장,서울특별시 송파구 석촌동 백제고분로,스트레스 해소; 감정 자극,,,,,,,,,,,37.5025616,127.0991797
우성볼링센터,볼링장,서울특별시 광진구 자양동 뚝섬로,스트레스 해소; 감정 자극,,,,,,,,,,,37.5352838,127.0684803
한화여의수영장,일반수영장,서울특별시 영등포구 여의도동 국제금융로,에너지 회복; 안정감,,,,,,,,,,,37.5255491,126.9274753
청학수영장,일반수영장,서울특별시 양천구 목동 오목로,에너지 회복; 안정감,,,,,,,,,,,,
유성수영장,일반수영장,서울특별시 강남구 신사동 압구정로,에너지 회복; 안정감,,,,,,,,,,,37.5236257,127.0215285
온천실내수영장,일반수영장,서울특별시 동대문구 신설동 한빛로,에너지 회복; 안정감,,,,,,,,,,,37.5780258,127.027523
한국헬스체육관,헬스/휘트니스,서울특별시 동대문구 용두동 무학로,스트레스 해소; 감정 자극,,,,,,,,,,,37.5779746,127.0304297
쌍용스쿼시클럽,스포츠센터,서울특별시 강남구 논현동 논현로,에너지 회복; 스트레스 해소,,,,,,,,,,,37.5181326,127.0287585
무지개수영장,일반수영장,서울특별시 강서구 등촌동 공항대로41길,에너지 회복; 안정감,,,,,,,,,,,,
시그마헬스클럽,헬스/휘트니스,서울특별시 동작구 신대방동 보라매로5길,스트레스 해소; 감정 자극,,,,,,,,,,,37.4909608,126.9228422
Q휘트니스클럽,헬스/휘트니스,서울특별시 동작구 사당동 동작대로29나길,스트레스 해소; 감정 자극,,,,,,,,,,,,
월슨스포츠클럽,헬스/휘트니스,서울특별시 구로구 구로동 구로중앙로,스트레스 해소; 감정 자극,,,,,,,,,,,37.5010998,126.8818877
그랜드헬스,헬스/휘트니스,서울특별시 중랑구 신내동 봉화산로56길,스트레스 해소; 감정 자극,,,,,,,,,,,,
궁전헬스,헬스/휘트니스,서울특별시 구로구 신도림동 ,스트레스 해소; 감정 자극,,,,,,,,,,,37.50941,126.88285
아센휘트니스,헬스/휘트니스,서울특별시 동작구 흑석동 서달로,스트레스 해소; 감정 자극,,,,,,,,,,,37.4989014,126.9597432
위너스헬스클럽,헬스/휘트니스,서울특별시 동대문구 이문동 한천로,스트레스 해소; 감정 자극,,,,,,,,,,,37.5953727,127.0681563
리버시티,수상스포츠,서울특별시 강남구 압구정동 압구정로11길,감정 자극; 스트레스 해소,,,,,,,,,,,37.5253133,127.0214362
삼성스포렉스,스포츠센터,서울특별시 동작구 상도동 양녕로30길,에너지 회복; 스트레스 해소,,,,,,,,,,,37.4992992,126.9449526
서울숲뚝섬승마장,승마장,서울특별시 성동구 성수동1가 서울숲2길,스트레스 해소; 감정 자극,,,,,,,,,,,,
잠실종합운동장잠실야구장,프로야구경기장,서울특별시 송파구 잠실동 올림픽로,에너지 회복; 스트레스 해소,,,,,,,,,,,37.5115211,127.0757714
강북구민운동장웰빙스포츠센터,스포츠센터,서울특별시 강북구 번동 오현로31길,에너지 회복; 스트레스 해소,,,,,,,,,,,37.6306904,127.0380088
경기스포츠센터,스포츠센터,서울특별시 서대문구 충정로2가 경기대로,에너지 회복; 스트레스 해소,,,,,,,,,,,37.5624361,126.9618463
르와휘트니스,헬스/휘트니스,서울특별시 강남구 도곡동 언주로,스트레스 해소; 감정 자극,,,,,,,,,,,37.4895722,127.0490511
이글골프아카데미,실내골프/스크린골프,서울특별시 도봉구 창동 덕릉로63가길,에너지 회복; 스트레스 해소,,,,,,,,,,,,
준헬스클럽,헬스/휘트니스,서울특별시 강남구 개포동 선릉로,스트레스 해소; 감정 자극,,,,,,,,,,,37.4792126,127.0647854
코리아볼링센터,볼링장,서울특별시 은평구 응암동 은평로,스트레스 해소; 감정 자극,,,,,,,,,,,,
헬스코리아클럽,헬스/휘트니스,서울특별시 중랑구 면목동 면목로,스트레스 해소; 감정 자극,,,,,,,,,,,37.5816841,127.0886238
골든헬스클럽,헬스/휘트니스,서울특별시 서초구 방배동 방배중앙로27길,스트레스 해소; 감정 자극,,,,,,,,,,,,
서울디지털운동장,일반경기장,서울특별시 금천구 가산동 가산디지털2로,에너지 회복; 스트레스 해소,,,,,,,,,,,37.4820799,126.8781353
잠실종합운동장잠실실내수영장,일반수영장,서울특별시 송파구 잠실동 올림픽로,에너지 회복; 안정감,,,,,,,,,,,37.5115211,127.0757714
태릉국제사격장,사격장,서울특별시 노원구 공릉동 화랑로,감정 자극; 스트레스 해소,,,,,,,,,,,37.6317176,127.1005228
송파수영장,일반수영장,서울특별시 송파구 잠실동 올림픽로,에너지 회복; 안정감,,,,,,,,,,,37.5115211,127.0757714
YMCA서초수영장,일반수영장,서울특별시 서초구 반포동 사평대로,에너지 회복; 안정감,,,,,,,,,,,37.5014683,127.0018479
관악구립운동장,일반경기장,서울특별시 관악구 신림동 ,에너지 회복; 스트레스 해소,,,,,,,,,,,37.4868283,126.9282666
반포공설운동장,공설/시민운동장,서울특별시 서초구 반포동 신반포로16길,에너지 회복; 스트레스 해소,,,,,,,,,,,37.4998032,126.9967101
잠실종합운동장,종합운동장컴플렉스,서울특별시 송파구 잠실동 올림픽로,에너지 회복; 스트레스 해소,,,,,,,,,,,37.5115211,127.0757714
목동종합운동장,종합운동장컴플렉스,서울특별시 양천구 목동 안양천로,에너지 회복; 스트레스 해소,,,,,,,,,,,,
서울월드컵경기장,월드컵경기장,서울특별시 마포구 성산동 월드컵로,에너지 회복; 스트레스 해소,,,,,,,,,,,37.5664374,126.8963377
올림픽공원벨로드롬,주/보조경기장,서울특별시 송파구 방이동 올림픽로,에너지 회복; 스트레스 해소,,,,,,,,,,,,
성동구민종합체육센터,지역체육센터,서울특별시 성동구 성수동1가 왕십리로,에너지 회복; 스트레스 해소,,,,,,,,,,,37.5397618,127.04374
관악구민종합체육센터,지역체육센터,서울특별시 관악구 봉천동 낙성대로3길,에너지 회복; 스트레스 해소,,,,,,,,,,,,
동대문구체육관,지역실내체육관,서울특별시 동대문구 답십리동 답십리로,에너지 회복; 스트레스 해소,,,,,,,,,,,37.5747327,127.0499421
영등포제1스포츠센터,지역체육센터,서울특별시 영등포구 신길동 신풍로,에너지 회복; 스트레스 해소,,,,,,,,,,,,
광진구민체육센터,지역체육센터,서울특별시 광진구 광장동 구천면로,에너지 회복; 스트레스 해소,,,,,,,,,,,37.5466968,127.1062895
성북종합레포츠타운,지역체육센터,서울특별시 성북구 석관동 한천로58길,에너지 회복; 스트레스 해소,,,,,,,,,,,37.6100056,127.0703623
중랑구민체육센터,지역체육센터,서울특별시 중랑구 묵동 신내로15길,에너지 회복; 스트레스 해소,,,,,,,,,,,,
노원체육센터,지역체육센터,서울특별시 노원구 중계동 노원로22길,에너지 회복; 스트레스 해소,,,,,,,,,,,,
금천구민문화체육센터,지역체육센터,서울특별시 금천구 독산동 독산로54길,에너지 회복; 스트레스 해소,,,,,,,,,,,37.4711591,126.9066107
올림픽체육센터,지역체육센터,서울특별시 강서구 등촌동 화곡로65길,에너지 회복; 스트레스 해소,,,,,,,,,,,,
동작구민체육센터,지역체육센터,서울특별시 동작구 신대방동 여의대방로16길,에너지 회복; 스트레스 해소,,,,,,,,,,,37.4942544,126.9164475
구로체육센터,지역체육센터,서울특별시 구로구 고척동 고척로45길,에너지 회복; 스트레스 해소,,,,,,,,,,,,
마포아트센터,지역체육센터,서울특별시 마포구 대흥동 대흥로20길,에너지 회복; 스트레스 해소,,,,,,,,,,,37.5503543,126.9451475
서초체육센터,지역체육센터,서울특별시 서초구 반포동 사평대로,에너지 회복; 스트레스 해소,,,,,,,,,,,37.5014683,127.0018479
은평구민체육센터,지역체육센터,서울특별시 은평구 진관동 진관1로,에너지 회복; 스트레스 해소,,,,,,,,,,,37.632951,126.9201794
고덕체육센터,지역체육센터,서울특별시 강동구 상일동 구천면로93길,에너지 회복; 스트레스 해소,,,,,,,,,,,37.5519674,127.1682471
신림체육센터,지역체육센터,서울특별시 관악구 신림동 난곡로58길,에너지 회복; 스트레스 해소,,,,,,,,,,,,
흑석체육센터,지역체육센터,서울특별시 동작구 흑석동 현충로,에너지 회복; 스트레스 해소,,,,,,,,,,,37.5109655,126.9617918
송파구체육센터,지역체육센터,서울특별시 송파구 거여동 양산로,에너지 회복; 스트레스 해소,,,,,,,,,,,37.4912571,127.1436281
이문체육센터,지역체육센터,서울특별시 동대문구 이문동 한천로58길,에너지 회복; 스트레스 해소,,,,,,,,,,,,
마장체육센터,지역체육센터,서울특별시 성동구 마장동 마조로11길,에너지 회복; 스트레스 해소,,,,,,,,,,,37.5617989,127.0402981
중랑문화체육관,지역체육센터,서울특별시 중랑구 면목동 사가정로72길,에너지 회복; 스트레스 해소,,,,,,,,,,,,
장평근린공원동대문구민체육센터,지역체육센터,서울특별시 동대문구 장안동 장안벚꽃로,에너지 회복; 스트레스 해소,,,,,,,,,,,37.5644149,127.0729096
신월체육센터,지역체육센터,서울특별시 양천구 신월동 지양로,에너지 회복; 스트레스 해소,,,,,,,,,,,,
마곡레포츠센터,지역체육센터,서울특별시 강서구 마곡동 양천로,에너지 회복; 스트레스 해소,,,,,,,,,,,,
월드스포츠타운,지역체육센터,서울특별시 강북구 수유동 삼양로,에너지 회복; 스트레스 해소,,,,,,,,,,,37.6353867,127.0170277
해공체육문화센터,지역체육센터,서울특별시 강동구 천호동 천중로18길,에너지 회복; 스트레스 해소,,,,,,,,,,,37.5438076,127.1299377
강동건강생활관,지역체육센터,서울특별시 강동구 성내동 성내로14길,에너지 회복; 스트레스 해소,,,,,,,,,,,37.5259147,127.1260102
잠실종합운동장SK나이츠홈구장,대형실내체육관,서울특별시 송파구 잠실동 올림픽로,에너지 회복; 스트레스 해소,,,,,,,,,,,37.5115211,127.0757714
장충체육관,대형실내체육관,서울특별시 중구 장충동2가 동호로,에너지 회복; 스트레스 해소,,,,,,,,,,,37.5580005,127.0081609
잠실종합운동장잠실실내체육관,대형실내체육관,서울특별시 송파구 잠실동 올림픽로,에너지 회복; 스트레스 해소,,,,,,,,,,,37.5115211,127.0757714
고려대학교아이스링크,스케이트장,서울특별시 성북구 안암동5가 안암로,에너지 회복; 스트레스 해소,,,,,,,,,,,37.5841523,127.030459
롯데월드아이스가든,스케이트장,서울특별시 송파구 잠실동 올림픽로,에너지 회복; 스트레스 해소,,,,,,,,,,,37.5115211,127.0757714
그랜드하얏트호텔서울아이스링크,스케이트장,서울특별시 용산구 한남동 소월로,에너지 회복; 스트레스 해소,,,,,,,,,,,37.5455117,127.0025952
태릉선수촌태릉국제스케이트장,스케이트장,서울특별시 노원구 공릉동 화랑로,에너지 회복; 스트레스 해소,,,,,,,,,,,37.6317176,127.1005228
목동종합운동장목동아이스링크,스케이트장,서울특별시 양천구 목동 안양천로,에너지 회복; 스트레스 해소,,,,,,,,,,,,
그랜드워커힐서울워커힐아이스링크,스케이트장,서울특별시 광진구 광장동 워커힐로,에너지 회복; 스트레스 해소,,,,,,,,,,,37.5442671,127.0973323
야구연습장,야구연습장,서울특별시 관악구 신림동 남부순환로,에너지 회복; 스트레스 해소,,,,,,,,,,,37.4840758,126.9279131
IONE스포츠클럽,지역실내체육관,서울특별시 서대문구 남가좌동 명지대길,에너지 회복; 스트레스 해소,,,,,,,,,,,37.5830286,126.9233761
창동스포츠문화컴플렉스문화체육센터,지역체육센터,서울특별시 도봉구 창동 노해로69길,에너지 회복; 스트레스 해소,,,,,,,,,,,,
도봉구실내배드민턴장,스포츠센터,서울특별시 도봉구 도봉동 마들로,에너지 회복; 스트레스 해소,,,,,,,,,,,,
르메이에르스포츠,지역실내체육관,서울특별시 종로구 청진동 종로,에너지 회복; 스트레스 해소,,,,,,,,,,,37.5701419,126.9773924
광나루한강공원광나루수영장,일반수영장,서울특별시 강동구 천호동 ,에너지 회복; 안정감,,,,,,,,,,,37.54294,127.12733
스마일스포츠센터,스포츠센터,서울특별시 중구 소공동 남대문로7길,에너지 회복; 스트레스 해소,,,,,,,,,,,37.5637679,126.9816538
웰빙스포렉스,스포츠센터,서울특별시 성북구 상월곡동 장월로3길,에너지 회복; 스트레스 해소,,,,,,,,,,,37.6092157,127.0442348
투자기관체육센터,지역체육센터,서울특별시 성동구 용답동 천호대로78길,에너지 회복; 스트레스 해소,,,,,,,,,,,37.5621411,127.0570895
올림픽공원테니스경기장,테니스장,서울특별시 송파구 방이동 올림픽로,에너지 회복; 스트레스 해소,,,,,,,,,,,,
뚝섬한강공원뚝섬눈썰매장,눈썰매장,서울특별시 광진구 자양동 ,감정 자극; 스트레스 해소,,,,,,,,,,,37.5316904,127.0749477
제일스포츠클럽,헬스/휘트니스,서울특별시 송파구 가락동 송파대로,스트레스 해소; 감정 자극,,,,,,,,,,,37.4908618,127.1200542
드림스포렉스,지역체육센터,서울특별시 강남구 역삼동 역삼로,에너지 회복; 스트레스 해소,,,,,,,,,,,37.4995545,127.0478452
성북구민체육관,지역체육센터,서울특별시 성북구 하월곡동 화랑로13길,에너지 회복; 스트레스 해소,,,,,,,,,,,37.6049233,127.0418097
스위트짐,헬스/휘트니스,서울특별시 성북구 길음동 삼양로,스트레스 해소; 감정 자극,,,,,,,,,,,37.609796,127.0220153
삼성스크린골프,실내골프/스크린골프,서울특별시 강남구 일원동 개포로124길,에너지 회복; 스트레스 해소,,,,,,,,,,,,
골프클럽21,실내골프/스크린골프,서울특별시 강남구 삼성동 삼성로,에너지 회복; 스트레스 해소,,,,,,,,,,,,
W골프헬스,헬스/휘트니스,서울특별시 강남구 신사동 압구정로30길,스트레스 해소; 감정 자극,,,,,,,,,,,37.5248281,127.0291103
서울스크린골프연습장,실내골프/스크린골프,서울특별시 동대문구 장안동 장한로,에너지 회복; 스트레스 해소,,,,,,,,,,,,
동아골프스쿨,실내골프/스크린골프,서울특별시 강남구 수서동 광평로47길,에너지 회복; 스트레스 해소,,,,,,,,,,,37.4876789,127.0993489
은성골프클리닉,실내골프/스크린골프,서울특별시 강남구 논현동 선릉로129길,에너지 회복; 스트레스 해소,,,,,,,,,,,,
버디골프스쿨,실내골프/스크린골프,서울특별시 강남구 신사동 압구정로,에너지 회복; 스트레스 해소,,,,,,,,,,,37.5236257,127.0215285
그린골프연습장,실내골프/스크린골프,서울특별시 강남구 역삼동 역삼로52길,에너지 회복; 스트레스 해소,,,,,,,,,,,,
에이스골프스쿨,실내골프/스크린골프,서울특별시 강서구 방화동 양천로,에너지 회복; 스트레스 해소,,,,,,,,,,,,
보라매골프스쿨,실내골프/스크린골프,서울특별시 동작구 신대방동 보라매로3길,에너지 회복; 스트레스 해소,,,,,,,,,,,,
메디스골프클럽,실내골프/스크린골프,서울특별시 강남구 논현동 봉은사로,에너지 회복; 스트레스 해소,,,,,,,,,,,37.5055954,127.0280206
삼성골프스쿨,실내골프/스크린골프,서울특별시 강남구 대치동 도곡로,에너지 회복; 스트레스 해소,,,,,,,,,,,37.5001811,127.0648705
동성골프클리닉,실내골프/스크린골프,서울특별시 강남구 삼성동 테헤란로87길,에너지 회복; 스트레스 해소,,,,,,,,,,,37.5086166,127.0589795
세종골프스쿨,실내골프/스크린골프,서울특별시 광진구 구의동 광나루로,에너지 회복; 스트레스 해소,,,,,,,,,,,37.5449828,127.0880163
싱글골프스쿨,실내골프/스크린골프,서울특별시 서초구 양재동 강남대로,에너지 회복; 스트레스 해소,,,,,,,,,,,37.4716569,127.0385394
골드골프연습장,실내골프/스크린골프,서울특별시 광진구 광장동 아차산로78길,에너지 회복; 스트레스 해소,,,,,,,,,,,37.5509773,127.1108714
골프로아카데미,실내골프/스크린골프,서울특별시 강남구 삼성동 봉은사로,에너지 회복; 스트레스 해소,,,,,,,,,,,37.5136222,127.0567549
홍익골프스쿨,실내골프/스크린골프,서울특별시 강남구 청담동 학동로,에너지 회복; 스트레스 해소,,,,,,,,,,,37.5181087,127.0457549
뉴메트로골프,실내골프/스크린골프,서울특별시 광진구 구의동 아차산로,에너지 회복; 스트레스 해소,,,,,,,,,,,,
남도골프연습장,실내골프/스크린골프,서울특별시 강남구 역삼동 테헤란로14길,에너지 회복; 스트레스 해소,,,,,,,,,,,,
현대밸리골프클럽,실내골프/스크린골프,서울특별시 광진구 자양동 뚝섬로,에너지 회복; 스트레스 해소,,,,,,,,,,,37.5352838,127.0684803
블루스카이,실내골프/스크린골프,서울특별시 성북구 정릉동 정릉로,에너지 회복; 스트레스 해소,,,,,,,,,,,37.611849,126.9922832
강경필골프스쿨,실내골프/스크린골프,서울특별시 강서구 등촌동 공항대로41길,에너지 회복; 스트레스 해소,,,,,,,,,,,,
코레스코골프클럽,실내골프/스크린골프,서울특별시 송파구 오금동 위례성대로,에너지 회복; 스트레스 해소,,,,,,,,,,,37.5102891,127.1314015
마스터스골프클럽,실내골프/스크린골프,서울특별시 광진구 자양동 능동로,에너지 회복; 스트레스 해소,,,,,,,,,,,37.5375517,127.0696332
서초골프아카데미,실내골프/스크린골프,서울특별시 서초구 서초동 효령로,에너지 회복; 스트레스 해소,,,,,,,,,,,37.4864209,127.0214463
KPGAGDR골프장,실내골프/스크린골프,서울특별시 강동구 명일동 동남로73길,에너지 회복; 스트레스 해소,,,,,,,,,,,37.5528897,127.1548048
베스트골프크럽,실내골프/스크린골프,서울특별시 강남구 도곡동 도곡로,에너지 회복; 스트레스 해소,,,,,,,,,,,37.4932782,127.0437644
Q골프연습장,실내골프/스크린골프,서울특별시 강동구 명일동 구천면로,에너지 회복; 스트레스 해소,,,,,,,,,,,37.549148,127.1509946
신라골프클리닉,실내골프/스크린골프,서울특별시 양천구 신정동 신월로,에너지 회복; 스트레스 해소,,,,,,,,,,,37.5213479,126.8521006
드림골프클럽,실내골프/스크린골프,서울특별시 강남구 역삼동 역삼로,에너지 회복; 스트레스 해소,,,,,,,,,,,37.4995545,127.0478452
삼창골프랜드,실내골프/스크린골프,서울특별시 노원구 중계동 한글비석로,에너지 회복; 스트레스 해소,,,,,,,,,,,,
KPGA골프,실내골프/스크린골프,서울특별시 강남구 대치동 영동대로50길,에너지 회복; 스트레스 해소,,,,,,,,,,,37.4989377,127.0706377
구로신협골프,실내골프/스크린골프,서울특별시 구로구 구로동 공원로,에너지 회복; 스트레스 해소,,,,,,,,,,,,
KMP골프연습장,실내골프/스크린골프,서울특별시 서초구 서초동 고무래로,에너지 회복; 스트레스 해소,,,,,,,,,,,,
라이프골프연습장,실내골프/스크린골프,서울특별시 강서구 화곡동 강서로,에너지 회복; 스트레스 해소,,,,,,,,,,,37.5388966,126.8423494
해동골프크리닉,실내골프/스크린골프,서울특별시 강동구 명일동 양재대로,에너지 회복; 스트레스 해소,,,,,,,,,,,,
한양골프스쿨,실내골프/스크린골프,서울특별시 도봉구 쌍문동 시루봉로,에너지 회복; 스트레스 해소,,,,,,,,,,,,
미도골프연습장,실내골프/스크린골프,서울특별시 강남구 대치동 삼성로,에너지 회복; 스트레스 해소,,,,,,,,,,,37.5028596,127.0591472
정릉골프스쿨,실내골프/스크린골프,서울특별시 성북구 정릉동 정릉로31길,에너지 회복; 스트레스 해소,,,,,,,,,,,,
무학골프존,실내골프/스크린골프,서울특별시 성동구 행당동 고산자로10길,에너지 회복; 스트레스 해소,,,,,,,,,,,37.558416,127.0360465
SD골프클리닉,실내골프/스크린골프,서울특별시 서초구 우면동 바우뫼로7길,에너지 회복; 스트레스 해소,,,,,,,,,,,37.4713458,127.0245034
아에라골프연습장,실내골프/스크린골프,서울특별시 성북구 석관동 화랑로,에너지 회복; 스트레스 해소,,,,,,,,,,,37.6115128,127.0595792
BMLEPORTS,실내골프/스크린골프,서울특별시 동작구 사당동 동작대로,에너지 회복; 스트레스 해소,,,,,,,,,,,,
도원골프클럽,실내골프/스크린골프,서울특별시 성북구 돈암동 성북로4길,에너지 회복; 스트레스 해소,,,,,,,,,,,,
드림파크골프,실내골프/스크린골프,서울특별시 광진구 중곡동 동일로,에너지 회복; 스트레스 해소,,,,,,,,,,,,
신안골프연습장,실내골프/스크린골프,서울특별시 강남구 대치동 테헤란로,에너지 회복; 스트레스 해소,,,,,,,,,,,,
강동골프연습장,실내골프/스크린골프,서울특별시 강동구 둔촌동 진황도로,에너지 회복; 스트레스 해소,,,,,,,,,,,37.5276895,127.1448084
안국골프아카데미,실내골프/스크린골프,서울특별시 종로구 경운동 삼일대로,에너지 회복; 스트레스 해소,,,,,,,,,,,37.5711546,126.987675
금오골프스쿨,실내골프/스크린골프,서울특별시 강서구 등촌동 공항대로41길,에너지 회복; 스트레스 해소,,,,,,,,,,,,
라이프포유골프,실내골프/스크린골프,서울특별시 노원구 공릉동 동일로180길,에너지 회복; 스트레스 해소,,,,,,,,,,,,
현대골프아카데미,실내골프/스크린골프,서울특별시 강남구 압구정동 압구정로,에너지 회복; 스트레스 해소,,,,,,,,,,,37.52735,127.0288606
마이골프클럽,실내골프/스크린골프,서울특별시 서초구 반포동 신반포로,에너지 회복; 스트레스 해소,,,,,,,,,,,37.5044399,126.9996177
쌍용골프스쿨,실내골프/스크린골프,서울특별시 강남구 대치동 영동대로,에너지 회복; 스트레스 해소,,,,,,,,,,,37.5018574,127.0671243
KMP골프아카데미,실내골프/스크린골프,서울특별시 서초구 서초동 효령로,에너지 회복; 스트레스 해소,,,,,,,,,,,37.4864209,127.0214463
COS골프아카데미,실내골프/스크린골프,서울특별시 양천구 신정동 신월로,에너지 회복; 스트레스 해소,,,,,,,,,,,37.5213479,126.8521006
프라자골프스쿨,실내골프/스크린골프,서울특별시 노원구 상계동 동일로227길,에너지 회복; 스트레스 해소,,,,,,,,,,,,
김종옥골프교실,실내골프/스크린골프,서울특별시 송파구 가락동 오금로46길,에너지 회복; 스트레스 해소,,,,,,,,,,,,
두성골프클리닉,실내골프/스크린골프,서울특별시 동작구 사당동 동작대로29길,에너지 회복; 스트레스 해소,,,,,,,,,,,,
올림피아골프장,실내골프/스크린골프,서울특별시 강동구 성내동 양재대로,에너지 회복; 스트레스 해소,,,,,,,,,,,,
신영골프스쿨,실내골프/스크린골프,서울특별시 강남구 청담동 영동대로,에너지 회복; 스트레스 해소,,,,,,,,,,,37.5225801,127.0558739
거명골프클럽,실내골프/스크린골프,서울특별시 강남구 대치동 남부순환로,에너지 회복; 스트레스 해소,,,,,,,,,,,37.4970649,127.0715566
진영골프연습장,실내골프/스크린골프,서울특별시 강동구 둔촌동 천호대로,에너지 회복; 스트레스 해소,,,,,,,,,,,37.5330201,127.1397104
파인골프연습장,실내골프/스크린골프,서울특별시 강남구 역삼동 언주로,에너지 회복; 스트레스 해소,,,,,,,,,,,37.4963919,127.0458068
프로골프아카데미,실내골프/스크린골프,서울특별시 용산구 동빙고동 장문로,에너지 회복; 스트레스 해소,,,,,,,,,,,37.5275656,126.994885
그린골프클리닉,실내골프/스크린골프,서울특별시 마포구 망원동 월드컵로,에너지 회복; 스트레스 해소,,,,,,,,,,,,
동영문화센터,실내골프/스크린골프,서울특별시 강남구 역삼동 언주로,에너지 회복; 스트레스 해소,,,,,,,,,,,37.4963919,127.0458068
뉴골드골프,실내골프/스크린골프,서울특별시 강남구 개포동 개포로82길,에너지 회복; 스트레스 해소,,,,,,,,,,,37.4886504,127.0683323
팔레스골프,실내골프/스크린골프,서울특별시 용산구 동자동 후암로,에너지 회복; 스트레스 해소,,,,,,,,,,,37.5538566,126.973606
팬다스크린골프,실내골프/스크린골프,서울특별시 서초구 방배동 방배로,에너지 회복; 스트레스 해소,,,,,,,,,,,37.4783113,126.9997061
대경골프연습장,실내골프/스크린골프,서울특별시 서초구 반포동 서초중앙로,에너지 회복; 스트레스 해소,,,,,,,,,,,,
럭키골프클럽,실내골프/스크린골프,서울특별시 강남구 도곡동 논현로,에너지 회복; 스트레스 해소,,,,,,,,,,,37.4890827,127.0414718
한양골프연습장,실내골프/스크린골프,서울특별시 강남구 청담동 영동대로138길,에너지 회복; 스트레스 해소,,,,,,,,,,,37.5230871,127.0566819
홍익골프연습장,실내골프/스크린골프,서울특별시 서초구 반포동 서초중앙로,에너지 회복; 스트레스 해소,,,,,,,,,,,,
서진골프스쿨,실내골프/스크린골프,서울특별시 노원구 상계동 동일로228길,에너지 회복; 스트레스 해소,,,,,,,,,,,,
스카이골프,실내골프/스크린골프,서울특별시 동대문구 장안동 장한로,에너지 회복; 스트레스 해소,,,,,,,,,,,,
서초골프클럽,실내골프/스크린골프,서울특별시 서초구 서초동 서초중앙로,에너지 회복; 스트레스 해소,,,,,,,,,,,37.4875623,127.0147933
세리골프스쿨,실내골프/스크린골프,서울특별시 은평구 갈현동 통일로85길,에너지 회복; 스트레스 해소,,,,,,,,,,,,
송파골프연습장,실내골프/스크린골프,서울특별시 송파구 가락동 오금로,에너지 회복; 스트레스 해소,,,,,,,,,,,,
뉴원골프스쿨,실내골프/스크린골프,서울특별시 송파구 풍납동 올림픽로,에너지 회복; 스트레스 해소,,,,,,,,,,,37.5268263,127.1183989
현대골프장,실내골프/스크린골프,서울특별시 송파구 삼전동 석촌호수로,에너지 회복; 스트레스 해소,,,,,,,,,,,37.5071463,127.0933544
버디골프클럽,실내골프/스크린골프,서울특별시 관악구 신림동 신림로,에너지 회복; 스트레스 해소,,,,,,,,,,,37.4739083,126.9335176
버디샷골프레인지,실내골프/스크린골프,서울특별시 서초구 반포동 사평대로28길,에너지 회복; 스트레스 해소,,,,,,,,,,,,
삼성골프클럽,실내골프/스크린골프,서울특별시 동작구 사당동 동작대로29길,에너지 회복; 스트레스 해소,,,,,,,,,,,,
서래골프스쿨,실내골프/스크린골프,서울특별시 서초구 반포동 서래로6길,에너지 회복; 스트레스 해소,,,,,,,,,,,,
NGF골프스쿨,실내골프/스크린골프,서울특별시 서초구 반포동 서초중앙로29길,에너지 회복; 스트레스 해소,,,,,,,,,,,,
이글골프연습장,실내골프/스크린골프,서울특별시 송파구 오금동 마천로8길,에너지 회복; 스트레스 해소,,,,,,,,,,,37.5068778,127.1277103
태영골프연습장,실내골프/스크린골프,서울특별시 서초구 서초동 반포대로30길,에너지 회복; 스트레스 해소,,,,,,,,,,,,
랜드골프아카데미,실내골프/스크린골프,서울특별시 서초구 잠원동 잠원로12길,에너지 회복; 스트레스 해소,,,,,,,,,,,,
김프로골프아카데미,실내골프/스크린골프,서울특별시 송파구 송파동 가락로,에너지 회복; 스트레스 해소,,,,,,,,,,,37.504081,127.1141497
상일골프스쿨,실내골프/스크린골프,서울특별시 강동구 상일동 상암로,에너지 회복; 스트레스 해소,,,,,,,,,,,37.5457865,127.1614564
교대골프연습장,실내골프/스크린골프,서울특별시 서초구 서초동 서초대로,에너지 회복; 스트레스 해소,,,,,,,,,,,37.4943665,127.0161747
포시즌스크린골프,실내골프/스크린골프,서울특별시 송파구 송파동 오금로,에너지 회복; 스트레스 해소,,,,,,,,,,,37.5089417,127.1146343
상아골프연습장,실내골프/스크린골프,서울특별시 송파구 오금동 오금로,에너지 회복; 스트레스 해소,,,,,,,,,,,37.5030459,127.1265606
대영골프연습장,실내골프/스크린골프,서울특별시 서초구 서초동 효령로,에너지 회복; 스트레스 해소,,,,,,,,,,,37.4864209,127.0214463
대원골프연습장,실내골프/스크린골프,서울특별시 서초구 서초동 서초대로,에너지 회복; 스트레스 해소,,,,,,,,,,,37.4943665,127.0161747
퀸골프스쿨,실내골프/스크린골프,서울특별시 송파구 방이동 오금로31길,에너지 회복; 스트레스 해소,,,,,,,,,,,,
삼보골프스쿨,실내골프/스크린골프,서울특별시 중랑구 면목동 중랑천로10길,에너지 회복; 스트레스 해소,,,,,,,,,,,,
코하골프연습장,실내골프/스크린골프,서울특별시 관악구 신림동 남부순환로,에너지 회복; 스트레스 해소,,,,,,,,,,,37.4840758,126.9279131
창동골프스쿨,실내골프/스크린골프,서울특별시 도봉구 창동 노해로69길,에너지 회복; 스트레스 해소,,,,,,,,,,,,
PGA골프연습장,실내골프/스크린골프,서울특별시 성북구 하월곡동 동소문로,에너지 회복; 스트레스 해소,,,,,,,,,,,,
PGA골프클리닉,실내골프/스크린골프,서울특별시 강남구 개포동 개포로,에너지 회복; 스트레스 해소,,,,,,,,,,,37.489715,127.0695778
J닥터골프연습장,실내골프/스크린골프,서울특별시 강남구 역삼동 테헤란로6길,에너지 회복; 스트레스 해소,,,,,,,,,,,,
대동골프연습장,실내골프/스크린골프,서울특별시 구로구 구로동 구로동로47길,에너지 회복; 스트레스 해소,,,,,,,,,,,37.4975194,126.8817958
동호골프연습장,실외골프연습장,서울특별시 성북구 석관동 돌곶이로22가길,에너지 회복; 스트레스 해소,,,,,,,,,,,37.6099071,127.0599509
인토골프연습장,실내골프/스크린골프,서울특별시 송파구 가락동 송이로,에너지 회복; 스트레스 해소,,,,,,,,,,,37.4976311,127.1210496
삼호골프스쿨,실내골프/스크린골프,서울특별시 서초구 방배동 동광로19길,에너지 회복; 스트레스 해소,,,,,,,,,,,,
서경골프클럽,실내골프/스크린골프,서울특별시 마포구 서교동 잔다리로,에너지 회복; 스트레스 해소,,,,,,,,,,,37.5569376,126.9141526
임페리얼골프아카데미,실내골프/스크린골프,서울특별시 성동구 행당동 왕십리로,에너지 회복; 스트레스 해소,,,,,,,,,,,37.5585868,127.0379182
포시즌골프연습장,실내골프/스크린골프,서울특별시 양천구 신월동 남부순환로,에너지 회복; 스트레스 해소,,,,,,,,,,,37.5327968,126.8304943
정릉골프클럽,실외골프연습장,서울특별시 성북구 정릉동 정릉로,에너지 회복; 스트레스 해소,,,,,,,,,,,37.611849,126.9922832
스포피아골프,실외골프연습장,서울특별시 강남구 청담동 학동로95길,에너지 회복; 스트레스 해소,,,,,,,,,,,37.5216881,127.0538226
한진골프클럽,실내골프/스크린골프,서울특별시 성북구 돈암동 성북로4길,에너지 회복; 스트레스 해소,,,,,,,,,,,,
비전골프연습장,실외골프연습장,서울특별시 송파구 삼전동 ,에너지 회복; 스트레스 해소,,,,,,,,,,,37.5014521,127.0901512
김포국제공항골프포트,실외골프연습장,서울특별시 강서구 공항동 하늘길,에너지 회복; 스트레스 해소,,,,,,,,,,,37.5580784,126.8059344
파스텔골프클럽,실외골프연습장,서울특별시 서초구 잠원동 신반포로33길,에너지 회복; 스트레스 해소,,,,,,,,,,,37.5127961,127.0098265
청호골프연습장,실외골프연습장,서울특별시 강남구 논현동 언주로148길,에너지 회복; 스트레스 해소,,,,,,,,,,,,
중계골프연습장,실외골프연습장,서울특별시 노원구 중계동 중계로,에너지 회복; 스트레스 해소,,,,,,,,,,,37.6413977,127.0832957
가양골프클럽,실외골프연습장,서울특별시 강서구 가양동 강서로,에너지 회복; 스트레스 해소,,,,,,,,,,,,
갤럭시아골프클럽,실외골프연습장,서울특별시 서초구 양재동 바우뫼로12길,에너지 회복; 스트레스 해소,,,,,,,,,,,37.4690867,127.0332845
청학골프연습장,실외골프연습장,서울특별시 양천구 목동 오목로,에너지 회복; 스트레스 해소,,,,,,,,,,,,
위너스골프클럽,실외골프연습장,서울특별시 금천구 독산동 시흥대로,에너지 회복; 스트레스 해소,,,,,,,,,,,37.4684383,126.8980548
산성골프레저,실외골프연습장,서울특별시 강동구 상일동 동남로,에너지 회복; 스트레스 해소,,,,,,,,,,,,
양서골프연습장,실외골프연습장,서울특별시 금천구 독산동 시흥대로123길,에너지 회복; 스트레스 해소,,,,,,,,,,,,
상계골프연습장,실외골프연습장,서울특별시 노원구 상계동 노원로,에너지 회복; 스트레스 해소,,,,,,,,,,,,
당산골프클럽,실외골프연습장,서울특별시 영등포구 당산동3가 당산로31길,에너지 회복; 스트레스 해소,,,,,,,,,,,37.5272681,126.8948022
르까프골프,실외골프연습장,서울특별시 강남구 대치동 역삼로98길,에너지 회복; 스트레스 해소,,,,,,,,,,,37.5038133,127.0645501
유니골프클럽,실외골프연습장,서울특별시 마포구 당인동 토정로,에너지 회복; 스트레스 해소,,,,,,,,,,,,
잠실골프연습장,실외골프연습장,서울특별시 송파구 잠실동 백제고분로11길,에너지 회복; 스트레스 해소,,,,,,,,,,,,
신길골프연습장,실외골프연습장,서울특별시 영등포구 신길동 여의대방로43라길,에너지 회복; 스트레스 해소,,,,,,,,,,,,
효창골프클럽,실외골프연습장,서울특별시 용산구 청파동3가 효창원로,에너지 회복; 스트레스 해소,,,,,,,,,,,37.5426503,126.962189
증산골프연습장,실외골프연습장,서울특별시 은평구 증산동 증산로3길,에너지 회복; 스트레스 해소,,,,,,,,,,,37.5812891,126.9058908
장안골프연습장,실외골프연습장,서울특별시 동대문구 장안동 장한로,에너지 회복; 스트레스 해소,,,,,,,,,,,,
동주골프연습장,실외골프연습장,서울특별시 송파구 방이동 오금로11길,에너지 회복; 스트레스 해소,,,,,,,,,,,37.5155822,127.1141604
도봉종합골프,실외골프연습장,서울특별시 도봉구 창동 해등로3길,에너지 회복; 스트레스 해소,,,,,,,,,,,37.6468721,127.041772
MS골프클럽,실외골프연습장,서울특별시 양천구 목동 공항대로,에너지 회복; 스트레스 해소,,,,,,,,,,,,
스윙파크골프,실외골프연습장,서울특별시 강남구 대치동 남부순환로391길,에너지 회복; 스트레스 해소,,,,,,,,,,,,
에딘버그골프클럽,실외골프연습장,서울특별시 성동구 성수동2가 광나루로,에너지 회복; 스트레스 해소,,,,,,,,,,,,
목동골프M스크린,실외골프연습장,서울특별시 양천구 신정동 중앙로,에너지 회복; 스트레스 해소,,,,,,,,,,,,
동진골프연습장,실외골프연습장,서울특별시 영등포구 신길동 여의대방로61길,에너지 회복; 스트레스 해소,,,,,,,,,,,,
삼주골프연습장,실내골프/스크린골프,서울특별시 금천구 독산동 시흥대로152길,에너지 회복; 스트레스 해소,,,,,,,,,,,,
아넥스골프클럽,실외골프연습장,서울특별시 송파구 방이동 오금로19길,에너지 회복; 스트레스 해소,,,,,,,,,,,37.5112279,127.1140578
낙성대골프,실외골프연습장,서울특별시 관악구 봉천동 낙성대로,에너지 회복; 스트레스 해소,,,,,,,,,,,,
1005골프연습장,실외골프연습장,서울특별시 강동구 천호동 구천면로,에너지 회복; 스트레스 해소,,,,,,,,,,,37.5469479,127.1339475
공원골프연습장,실외골프연습장,서울특별시 송파구 방이동 백제고분로,에너지 회복; 스트레스 해소,,,,,,,,,,,37.5133798,127.1141211
일흥스포타운골프,실외골프연습장,서울특별시 서초구 서초동 명달로,에너지 회복; 스트레스 해소,,,,,,,,,,,,
XGOLF골프연습장,실외골프연습장,서울특별시 서초구 반포동 강남대로,에너지 회복; 스트레스 해소,,,,,,,,,,,,
로얄골프연습장,실외골프연습장,서울특별시 강남구 대치동 도곡로99길,에너지 회복; 스트레스 해소,,,,,,,,,,,,
오케이휘트니스,헬스/휘트니스,서울특별시 강남구 신사동 논현로,스트레스 해소; 감정 자극,,,,,,,,,,,37.5221386,127.0281594
프라임골프,실외골프연습장,서울특별시 광진구 구의동 광나루로56길,에너지 회복; 스트레스 해소,,,,,,,,,,,,
코오롱스포렉스,스포츠센터,서울특별시 서초구 서초동 서초대로70길,에너지 회복; 스트레스 해소,,,,,,,,,,,,
유진골프연습장,실내골프/스크린골프,서울특별시 강동구 천호동 양재대로,에너지 회복; 스트레스 해소,,,,,,,,,,,,
럭키레포츠타운,실외골프연습장,서울특별시 강북구 번동 한천로,에너지 회복; 스트레스 해소,,,,,,,,,,,37.6315714,127.0400311
올림픽골프클럽,실외골프연습장,서울특별시 종로구 평창동 평창문화로,에너지 회복; 스트레스 해소,,,,,,,,,,,37.60421,126.9634721
도곡골프연습장,실외골프연습장,서울특별시 강남구 도곡동 남부순환로370길,에너지 회복; 스트레스 해소,,,,,,,,,,,,
스포타임골프,실외골프연습장,서울특별시 서초구 양재동 강남대로,에너지 회복; 스트레스 해소,,,,,,,,,,,37.4716569,127.0385394
용마골프클럽,실외골프연습장,서울특별시 중랑구 망우동 ,에너지 회복; 스트레스 해소,,,,,,,,,,,37.6008638,127.1076269
힐스포파크골프,실외골프연습장,서울특별시 동대문구 답십리동 답십리로,에너지 회복; 스트레스 해소,,,,,,,,,,,37.5747327,127.0499421
초안산골프연습장,실외골프연습장,서울특별시 노원구 월계동 마들로5가길,에너지 회복; 스트레스 해소,,,,,,,,,,,,
오동골프클럽,실외골프연습장,서울특별시 강북구 번동 오현로,에너지 회복; 스트레스 해소,,,,,,,,,,,37.6291546,127.0383981
북악골프연습장,실외골프연습장,서울특별시 성북구 정릉동 북악산로,에너지 회복; 스트레스 해소,,,,,,,,,,,,
강남노보텔골프,실외골프연습장,서울특별시 강남구 역삼동 봉은사로,에너지 회복; 스트레스 해소,,,,,,,,,,,,
원골프클럽,실외골프연습장,서울특별시 구로구 고척동 중앙로,에너지 회복; 스트레스 해소,,,,,,,,,,,37.4997829,126.8641328
밀리언골프클럽,실외골프연습장,서울특별시 구로구 고척동 안양천로537길,에너지 회복; 스트레스 해소,,,,,,,,,,,,
렉스골프클럽,실외골프연습장,서울특별시 서대문구 홍은동 연희로41길,에너지 회복; 스트레스 해소,,,,,,,,,,,37.591422,126.934463
동도센트리움골프,실외골프연습장,서울특별시 구로구 오류동 경인로6길,에너지 회복; 스트레스 해소,,,,,,,,,,,,
월계골프연습장,실외골프연습장,서울특별시 노원구 월계동 초안산로2길,에너지 회복; 스트레스 해소,,,,,,,,,,,37.6332374,127.0582922
농꿀가족농원낚시터,낚시터,서울특별시 은평구 진관동 의상봉길,안정감; 감정 정화,,,,,,,,,,,37.6528699,126.9427061
파라호실내낚시터,실내낚시터,서울특별시 강서구 화곡동 곰달래로60길,안정감; 감정 정화,,,,,,,,,,,,
쉼터실내낚시터,실내낚시터,서울특별시 중랑구 면목동 동일로101길,안정감; 감정 정화,,,,,,,,,,,,
호반실내낚시터,낚시터,서울특별시 강서구 내발산동 강서로,안정감; 감정 정화,,,,,,,,,,,37.5507788,126.8363291
장충리틀야구장,지역야구장,서울특별시 중구 장충동2가 ,에너지 회복; 스트레스 해소,,,,,,,,,,,37.5541467,127.0002445
목동종합운동장목동야구장,지역야구장,서울특별시 양천구 목동 안양천로,에너지 회복; 스트레스 해소,,,,,,,,,,,,
배명야구장,지역야구장,서울특별시 송파구 석촌동 ,에너지 회복; 스트레스 해소,,,,,,,,,,,37.5024827,127.103495
성균관대야구장,지역야구장,서울특별시 도봉구 도봉동 도봉로168길,에너지 회복; 스트레스 해소,,,,,,,,,,,,
광나루한강공원광나루유원지야구장,지역야구장,서울특별시 송파구 풍납동 ,에너지 회복; 스트레스 해소,,,,,,,,,,,37.5337445,127.1150318
올림픽공원송파구립축구장,지역축구장,서울특별시 송파구 방이동 올림픽로,에너지 회복; 스트레스 해소,,,,,,,,,,,,
어린이대공원잔디축구장,지역축구장,서울특별시 광진구 능동 능동로,에너지 회복; 스트레스 해소,,,,,,,,,,,37.5534476,127.0777669
초안산근린공원창골잔디구장,지역축구장,서울특별시 도봉구 창동 ,에너지 회복; 스트레스 해소,,,,,,,,,,,37.6525981,127.047978
마들근린공원노원마들스타디움,지역축구장,서울특별시 노원구 상계동 덕릉로,에너지 회복; 스트레스 해소,,,,,,,,,,,,
탄천축구장,지역축구장,서울특별시 송파구 가락동 삼학사로2길,에너지 회복; 스트레스 해소,,,,,,,,,,,,
은평구민축구장,지역축구장,서울특별시 은평구 진관동 진관1로,에너지 회복; 스트레스 해소,,,,,,,,,,,37.6330332,126.9298849
인조잔디축구장,지역축구장,서울특별시 강서구 화곡동 우장산로10길,에너지 회복; 스트레스 해소,,,,,,,,,,,,
양천해누리체육공원,지역축구장,서울특별시 양천구 신정동 목동동로,에너지 회복; 스트레스 해소,,,,,,,,,,,,
강북구민운동장,지역(마을/단지)운동장,서울특별시 강북구 번동 오현로,에너지 회복; 스트레스 해소,,,,,,,,,,,37.6291546,127.0383981
관악구민운동장,지역(마을/단지)운동장,서울특별시 관악구 봉천동 낙성대로,에너지 회복; 스트레스 해소,,,,,,,,,,,,
대림운동장,지역(마을/단지)운동장,서울특별시 영등포구 대림동 가마산로31길,에너지 회복; 스트레스 해소,,,,,,,,,,,37.5003388,126.8937751
방죽소운동장,지역(마을/단지)운동장,서울특별시 강동구 고덕동 고덕로,에너지 회복; 스트레스 해소,,,,,,,,,,,37.556037,127.1455687
제2월곡인조잔디구장,지역(마을/단지)운동장,서울특별시 성북구 상월곡동 장월로3길,에너지 회복; 스트레스 해소,,,,,,,,,,,37.6092157,127.0442348
국회의사당둔치운동장,지역(마을/단지)운동장,서울특별시 영등포구 여의도동 의사당대로,에너지 회복; 스트레스 해소,,,,,,,,,,,37.5264945,126.9190922
중랑잔디운동장,공설/시민운동장,서울특별시 중랑구 망우동 ,에너지 회복; 스트레스 해소,,,,,,,,,,,37.6008638,127.1076269
창동스포츠문화컴플렉스,지역(마을/단지)운동장,서울특별시 도봉구 창동 노해로69길,에너지 회복; 스트레스 해소,,,,,,,,,,,,
효창공원효창운동장,지역(마을/단지)운동장,서울특별시 용산구 효창동 효창원로,에너지 회복; 스트레스 해소,,,,,,,,,,,37.5426503,126.962189
준휘트니스,헬스/휘트니스,서울특별시 중랑구 묵동 신내로25가길,스트레스 해소; 감정 자극,,,,,,,,,,,,
씨랄라워터파크,워터파크,서울특별시 영등포구 문래동3가 문래로,감정 자극; 스트레스 해소,,,,,,,,,,,37.5188225,126.8966881
CSH골프연습장,실내골프/스크린골프,서울특별시 영등포구 여의도동 국제금융로6길,에너지 회복; 스트레스 해소,,,,,,,,,,,37.521872,126.9275525
CSH헬스클럽,헬스/휘트니스,서울특별시 영등포구 여의도동 국제금융로6길,스트레스 해소; 감정 자극,,,,,,,,,,,37.521872,126.9275525
WOW스포츠아카데미,스포츠센터,서울특별시 영등포구 여의도동 국제금융로,에너지 회복; 스트레스 해소,,,,,,,,,,,37.5209509,126.9318158
스카이24,당구장,서울특별시 영등포구 여의도동 국제금융로,스트레스 해소; 감정 자극,,,,,,,,,,,37.5209509,126.9318158
돈암문화스포츠센터,스포츠센터,서울특별시 성북구 동소문동6가 동소문로13길,에너지 회복; 스트레스 해소,,,,,,,,,,,37.5938195,127.0117806
극동스포츠센터,스포츠센터,서울특별시 강남구 신사동 압구정로,에너지 회복; 스트레스 해소,,,,,,,,,,,37.5283635,127.0383787
21세기탁구장,탁구장,서울특별시 강동구 명일동 동남로73길,에너지 회복; 스트레스 해소,,,,,,,,,,,37.5528897,127.1548048
메이필드호텔골프연습장,실외골프연습장,서울특별시 강서구 외발산동 방화대로,에너지 회복; 스트레스 해소,,,,,,,,,,,37.5505609,126.8166548
목동종합운동장목동주경기장,주/보조경기장,서울특별시 양천구 목동 안양천로,에너지 회복; 스트레스 해소,,,,,,,,,,,,
잠실종합운동장보조경기장,주/보조경기장,서울특별시 송파구 잠실동 올림픽로,에너지 회복; 스트레스 해소,,,,,,,,,,,37.5115211,127.0757714
잠실종합운동장올림픽주경기장,주/보조경기장,서울특별시 송파구 잠실동 올림픽로,에너지 회복; 스트레스 해소,,,,,,,,,,,37.5115211,127.0757714
잠실한강공원잠실수영장,일반수영장,서울특별시 송파구 잠실동 한가람로,에너지 회복; 안정감,,,,,,,,,,,37.5162541,127.0841489
잠원한강공원수영장,일반수영장,서울특별시 서초구 잠원동 잠원로,에너지 회복; 안정감,,,,,,,,,,,37.5204886,127.0152037
뚝섬한강공원뚝섬지구수영장,일반수영장,서울특별시 광진구 자양동 ,에너지 회복; 안정감,,,,,,,,,,,37.5316904,127.0749477
망원한강공원수영장,일반수영장,서울특별시 마포구 망원동 ,에너지 회복; 안정감,,,,,,,,,,,37.5560241,126.9009751
대성용인체육관,지역실내체육관,서울특별시 광진구 자양동 뚝섬로24길,에너지 회복; 스트레스 해소,,,,,,,,,,,,
국도체육관,지역실내체육관,서울특별시 광진구 능동 천호대로112길,에너지 회복; 스트레스 해소,,,,,,,,,,,37.5545532,127.0808081
광일체육관,지역실내체육관,서울특별시 광진구 자양동 뚝섬로46길,에너지 회복; 스트레스 해소,,,,,,,,,,,,
강남구민체육관,지역실내체육관,서울특별시 강남구 개포동 개포로28길,에너지 회복; 스트레스 해소,,,,,,,,,,,,
보성태권도장,지역실내체육관,서울특별시 광진구 광장동 아차산로,에너지 회복; 스트레스 해소,,,,,,,,,,,37.5422968,127.0993383
동명체육관,지역실내체육관,서울특별시 성동구 마장동 마장로27길,에너지 회복; 스트레스 해소,,,,,,,,,,,37.5669939,127.034266
성광체육관,지역실내체육관,서울특별시 서대문구 홍제동 통일로39길,에너지 회복; 스트레스 해소,,,,,,,,,,,,
AMF스포츠센터,스포츠센터,서울특별시 동대문구 신설동 난계로,에너지 회복; 스트레스 해소,,,,,,,,,,,,
삼부그린스포츠센터,스포츠센터,서울특별시 중랑구 신내동 용마산로,에너지 회복; 스트레스 해소,,,,,,,,,,,37.6136706,127.1008398
노벨스포츠센터,스포츠센터,서울특별시 강남구 논현동 선릉로131길,에너지 회복; 스트레스 해소,,,,,,,,,,,,
OK휘트니스,헬스/휘트니스,서울특별시 강남구 삼성동 삼성로,스트레스 해소; 감정 자극,,,,,,,,,,,,
금호스포츠센터,스포츠센터,서울특별시 노원구 상계동 상계로5길,에너지 회복; 스트레스 해소,,,,,,,,,,,,
금강스포츠센터,스포츠센터,서울특별시 강서구 방화동 금낭화로,에너지 회복; 스트레스 해소,,,,,,,,,,,37.5799066,126.8109245
삼성레포츠센터,스포츠센터,서울특별시 서초구 서초동 서초대로64길,에너지 회복; 스트레스 해소,,,,,,,,,,,37.4916866,127.021236
메디스클럽,스포츠센터,서울특별시 강남구 논현동 봉은사로,에너지 회복; 스트레스 해소,,,,,,,,,,,37.5055954,127.0280206
신안스포츠클럽,스포츠센터,서울특별시 강남구 대치동 테헤란로,에너지 회복; 스트레스 해소,,,,,,,,,,,,
성모재활센터,스포츠센터,서울특별시 중랑구 신내동 신내로,에너지 회복; 스트레스 해소,,,,,,,,,,,37.6170231,127.0920103
사회체육센터,스포츠센터,서울특별시 서초구 양재동 논현로,에너지 회복; 스트레스 해소,,,,,,,,,,,,
로제우스레포츠센터,스포츠센터,서울특별시 종로구 구기동 진흥로,에너지 회복; 스트레스 해소,,,,,,,,,,,37.6085043,126.9555665
시그마스포츠,스포츠센터,서울특별시 송파구 신천동 올림픽로,에너지 회복; 스트레스 해소,,,,,,,,,,,37.5146284,127.1018612
서울스포츠클럽,스포츠센터,서울특별시 종로구 연지동 김상옥로,에너지 회복; 스트레스 해소,,,,,,,,,,,37.5732512,127.0012494
청담스포피아,스포츠센터,서울특별시 강남구 청담동 학동로95길,에너지 회복; 스트레스 해소,,,,,,,,,,,37.5216881,127.0538226
아이엔지스포츠,스포츠센터,서울특별시 서초구 서초동 서초중앙로24길,에너지 회복; 스트레스 해소,,,,,,,,,,,,
유진스포렉스,스포츠센터,서울특별시 강동구 천호동 양재대로,에너지 회복; 스트레스 해소,,,,,,,,,,,,
로얄스포츠센터,스포츠센터,서울특별시 중랑구 중화동 망우로,에너지 회복; 스트레스 해소,,,,,,,,,,,37.5946423,127.0786774
유경스포츠센터,스포츠센터,서울특별시 노원구 중계동 한글비석로,에너지 회복; 스트레스 해소,,,,,,,,,,,,
코하스포츠센터,스포츠센터,서울특별시 관악구 봉천동 관악로,에너지 회복; 스트레스 해소,,,,,,,,,,,37.4812588,126.9527443
연세스포츠센터,스포츠센터,서울특별시 서대문구 홍제동 통일로,에너지 회복; 스트레스 해소,,,,,,,,,,,37.5838023,126.9495888
구의야구공원,지역야구장,서울특별시 광진구 구의동 워커힐로,에너지 회복; 스트레스 해소,,,,,,,,,,,37.5474681,127.098195
여의도한강공원파크골프장,퍼블릭골프장,서울특별시 영등포구 여의도동 ,에너지 회복; 스트레스 해소,,,,,,,,,,,37.5284646,126.9300522
SJ등촌골프장연습장,실외골프연습장,서울특별시 강서구 등촌동 공항대로45길,에너지 회복; 스트레스 해소,,,,,,,,,,,,
올림픽기념국민생활관,지역체육센터,서울특별시 종로구 혜화동 성균관로,에너지 회복; 스트레스 해소,,,,,,,,,,,37.585413,126.9972643
잠실종합운동장삼성썬더스홈구장,대형실내체육관,서울특별시 송파구 잠실동 올림픽로,에너지 회복; 스트레스 해소,,,,,,,,,,,37.5115211,127.0757714
뚝섬한강공원쥬티클럽,수상스포츠,서울특별시 광진구 자양동 ,감정 자극; 스트레스 해소,,,,,,,,,,,37.5316904,127.0749477
뚝섬한강공원슈퍼스타즈,수상스포츠,서울특별시 광진구 자양동 ,감정 자극; 스트레스 해소,,,,,,,,,,,37.5316904,127.0749477
오금근린공원송파인라인경기장,스케이트장,서울특별시 송파구 오금동 오금로,에너지 회복; 스트레스 해소,,,,,,,,,,,37.5026783,127.1271012
종로문화체육센터,스포츠센터,서울특별시 종로구 사직동 인왕산로1길,에너지 회복; 스트레스 해소,,,,,,,,,,,37.5754588,126.9649064
키움홈구장,프로야구경기장,서울특별시 구로구 고척동 경인로,에너지 회복; 스트레스 해소,,,,,,,,,,,37.4975857,126.8637132
스피존,실내경마장,서울특별시 송파구 방이동 올림픽로,안정감; 감정 정화,,,,,,,,,,,,
서울월드컵경기장보조경기장,주/보조경기장,서울특별시 마포구 성산동 ,에너지 회복; 스트레스 해소,,,,,,,,,,,37.56775,126.90263
천마근린공원축구장,지역축구장,서울특별시 송파구 마천동 성내천로35길,에너지 회복; 스트레스 해소,,,,,,,,,,,37.4987117,127.155697
로또당구클럽,당구장,서울특별시 강동구 둔촌동 천호대로,스트레스 해소; 감정 자극,,,,,,,,,,,37.5336637,127.1396323
한양당구장,당구장,서울특별시 구로구 구로동 구로동로35길,스트레스 해소; 감정 자극,,,,,,,,,,,37.4937521,126.8827132
프로당구클럽,당구장,서울특별시 구로구 구로동 구로동로,스트레스 해소; 감정 자극,,,,,,,,,,,37.4860547,126.8855838
RGDMC,헬스/휘트니스,서울특별시 마포구 상암동 월드컵북로,스트레스 해소; 감정 자극,,,,,,,,,,,37.5825783,126.8832349
봉프로,당구장,서울특별시 광진구 화양동 능동로,스트레스 해소; 감정 자극,,,,,,,,,,,37.5405754,127.0708976
스포캐슬스포츠센터,스포츠센터,서울특별시 송파구 신천동 올림픽로,에너지 회복; 스트레스 해소,,,,,,,,,,,37.5146284,127.1018612
엠휘트니스,헬스/휘트니스,서울특별시 강북구 미아동 도봉로,스트레스 해소; 감정 자극,,,,,,,,,,,37.6308331,127.024486
서울월드컵경기장인조축구경기장,일반경기장,서울특별시 마포구 성산동 ,에너지 회복; 스트레스 해소,,,,,,,,,,,37.56775,126.90263
상암스크린골프존,실내골프/스크린골프,서울특별시 마포구 상암동 월드컵북로,에너지 회복; 스트레스 해소,,,,,,,,,,,37.5825783,126.8832349
GR휘트니스,헬스/휘트니스,서울특별시 마포구 상암동 월드컵북로,스트레스 해소; 감정 자극,,,,,,,,,,,37.5825783,126.8832349
우리은행체육관,지역실내체육관,서울특별시 성북구 장위동 돌곶이로34길,에너지 회복; 스트레스 해소,,,,,,,,,,,37.6165344,127.051189
KTA장충장호테니스장,테니스장,서울특별시 중구 장충동2가 장충단로,에너지 회복; 스트레스 해소,,,,,,,,,,,37.5622474,127.0064864
잠실코베튜브눈썰매장,눈썰매장,서울특별시 송파구 잠실동 올림픽로,감정 자극; 스트레스 해소,,,,,,,,,,,37.5115211,127.0757714
망원한강공원눈썰매장,눈썰매장,서울특별시 마포구 망원동 ,감정 자극; 스트레스 해소,,,,,,,,,,,37.5560241,126.9009751
덕수수영장,일반수영장,서울특별시 중구 정동 덕수궁길,에너지 회복; 안정감,,,,,,,,,,,37.568894,126.9742772
살곶이체육공원축구장,지역축구장,서울특별시 성동구 사근동 ,에너지 회복; 스트레스 해소,,,,,,,,,,,37.5589948,127.0480281
용마공원용마랜드눈썰매장,눈썰매장,서울특별시 중랑구 망우동 망우로70길,감정 자극; 스트레스 해소,,,,,,,,,,,37.5960882,127.1034314
타임스퀘어코오롱스포렉트,헬스/휘트니스,서울특별시 영등포구 영등포동4가 영중로,스트레스 해소; 감정 자극,,,,,,,,,,,37.5168714,126.9064614
CSH스포츠몰,스포츠센터,서울특별시 영등포구 여의도동 여의대로,에너지 회복; 스트레스 해소,,,,,,,,,,,37.5285149,126.9286196
현대골프,실내골프/스크린골프,서울특별시 영등포구 여의도동 국회대로70길,에너지 회복; 스트레스 해소,,,,,,,,,,,37.5292969,126.9202776
언남문화체육센터,지역체육센터,서울특별시 서초구 양재동 동산로13길,에너지 회복; 스트레스 해소,,,,,,,,,,,37.4728407,127.0444923
이글스포렉스,실외골프연습장,서울특별시 강남구 대치동 역삼로,에너지 회복; 스트레스 해소,,,,,,,,,,,37.5037829,127.0595421
코오롱스포렉스골프연습장,실외골프연습장,서울특별시 서초구 서초동 서초대로70길,에너지 회복; 스트레스 해소,,,,,,,,,,,,
칸타빌골프연습장,실내골프/스크린골프,서울특별시 양천구 목동 목동로,에너지 회복; 스트레스 해소,,,,,,,,,,,,
동서골프프라자,실외골프연습장,서울특별시 용산구 청파동1가 청파로,에너지 회복; 스트레스 해소,,,,,,,,,,,37.5470902,126.9699215
반트실내수영장,일반수영장,서울특별시 강남구 도곡동 언주로30길,에너지 회복; 안정감,,,,,,,,,,,,
해밀톤호텔수영장,일반수영장,서울특별시 용산구 이태원동 이태원로,에너지 회복; 안정감,,,,,,,,,,,,
에버그린스크린골프,실내골프/스크린골프,서울특별시 강서구 방화동 양천로,에너지 회복; 스트레스 해소,,,,,,,,,,,,
그린밸리,실내골프/스크린골프,서울특별시 강서구 방화동 방화대로47가길,에너지 회복; 스트레스 해소,,,,,,,,,,,37.5773418,126.8135527
세원골프클럽,실내골프/스크린골프,서울특별시 양천구 신월동 화곡로,에너지 회복; 스트레스 해소,,,,,,,,,,,37.5395238,126.8276036
파워골프,실내골프/스크린골프,서울특별시 강서구 화곡동 가로공원로,에너지 회복; 스트레스 해소,,,,,,,,,,,,
제이앤제이스크린골프,실내골프/스크린골프,서울특별시 구로구 오류동 경인로,에너지 회복; 스트레스 해소,,,,,,,,,,,37.4911523,126.8298122
이플러스골프,실내골프/스크린골프,서울특별시 양천구 신월동 오목로,에너지 회복; 스트레스 해소,,,,,,,,,,,,
시티월드골프,실내골프/스크린골프,서울특별시 구로구 오류동 경인로,에너지 회복; 스트레스 해소,,,,,,,,,,,37.4911523,126.8298122
이븐파스크린골프,실내골프/스크린골프,서울특별시 강서구 등촌동 강서로,에너지 회복; 스트레스 해소,,,,,,,,,,,,
가양스포츠클럽,실내골프/스크린골프,서울특별시 강서구 가양동 강서로,에너지 회복; 스트레스 해소,,,,,,,,,,,,
300골프,실내골프/스크린골프,서울특별시 강서구 화곡동 강서로5나길,에너지 회복; 스트레스 해소,,,,,,,,,,,,
굿샷월드스크린골프,실내골프/스크린골프,서울특별시 강서구 화곡동 강서로17길,에너지 회복; 스트레스 해소,,,,,,,,,,,,
제에피골프아카데미,실내골프/스크린골프,서울특별시 구로구 개봉동 고척로27길,에너지 회복; 스트레스 해소,,,,,,,,,,,,
에비앙,실내골프/스크린골프,서울특별시 강서구 등촌동 공항대로41길,에너지 회복; 스트레스 해소,,,,,,,,,,,,
현대그린골프연습장,실내골프/스크린골프,서울특별시 강서구 화곡동 우장산로14길,에너지 회복; 스트레스 해소,,,,,,,,,,,,
EG스크린골프,실내골프/스크린골프,서울특별시 강서구 화곡동 ,에너지 회복; 스트레스 해소,,,,,,,,,,,37.542134,126.8441752
수스크린골프,실내골프/스크린골프,서울특별시 강서구 등촌동 화곡로66길,에너지 회복; 스트레스 해소,,,,,,,,,,,,
상영알앤지,실내골프/스크린골프,서울특별시 양천구 신정동 목동서로,에너지 회복; 스트레스 해소,,,,,,,,,,,,
제이앤제이골프스크린,실내골프/스크린골프,서울특별시 양천구 신정동 신정중앙로,에너지 회복; 스트레스 해소,,,,,,,,,,,,
테마골프,실내골프/스크린골프,서울특별시 양천구 신정동 목동서로,에너지 회복; 스트레스 해소,,,,,,,,,,,,
목동골프스토리,실내골프/스크린골프,서울특별시 양천구 신정동 신월로,에너지 회복; 스트레스 해소,,,,,,,,,,,37.5213479,126.8521006
신정골프연습장,실내골프/스크린골프,서울특별시 양천구 신정동 신정중앙로,에너지 회복; 스트레스 해소,,,,,,,,,,,,
비바골프스쿨,실내골프/스크린골프,서울특별시 양천구 목동 등촌로,에너지 회복; 스트레스 해소,,,,,,,,,,,,
그린야드골프스쿨,실내골프/스크린골프,서울특별시 양천구 목동 목동중앙서로8길,에너지 회복; 스트레스 해소,,,,,,,,,,,,
PGA골프스쿨,실내골프/스크린골프,서울특별시 양천구 목동 목동중앙서로,에너지 회복; 스트레스 해소,,,,,,,,,,,,
한화골프스쿨,실내골프/스크린골프,서울특별시 양천구 목동 공항대로,에너지 회복; 스트레스 해소,,,,,,,,,,,,
오퍼스스크린골프,실내골프/스크린골프,서울특별시 구로구 구로동 구로중앙로,에너지 회복; 스트레스 해소,,,,,,,,,,,37.5010998,126.8818877
동아골프,실내골프/스크린골프,서울특별시 강서구 염창동 양천로,에너지 회복; 스트레스 해소,,,,,,,,,,,37.5477854,126.8796328
구로스크린골프,실내골프/스크린골프,서울특별시 구로구 구로동 경인로,에너지 회복; 스트레스 해소,,,,,,,,,,,37.5003017,126.8758793
JK골프스쿨,실내골프/스크린골프,서울특별시 양천구 목동 목동서로,에너지 회복; 스트레스 해소,,,,,,,,,,,37.5358692,126.8768774
그린스포피아,실내골프/스크린골프,서울특별시 양천구 목동 목동동로,에너지 회복; 스트레스 해소,,,,,,,,,,,37.5352107,126.8793143
아이엔엔스크린골프,실내골프/스크린골프,서울특별시 마포구 상암동 상암산로1길,에너지 회복; 스트레스 해소,,,,,,,,,,,37.5790032,126.8869043
킹스크린골프,실내골프/스크린골프,서울특별시 구로구 신도림동 경인로65길,에너지 회복; 스트레스 해소,,,,,,,,,,,37.5093479,126.8857076
씨엘골프아카데미,실내골프/스크린골프,서울특별시 영등포구 문래동3가 선유로,에너지 회복; 스트레스 해소,,,,,,,,,,,37.5194314,126.8893618
금호골프연습장,실내골프/스크린골프,서울특별시 구로구 구로동 공원로,에너지 회복; 스트레스 해소,,,,,,,,,,,,
스크린골프투어,실내골프/스크린골프,서울특별시 구로구 구로동 도림로20길,에너지 회복; 스트레스 해소,,,,,,,,,,,,
LA골프클럽,실내골프/스크린골프,서울특별시 구로구 구로동 도림천로,에너지 회복; 스트레스 해소,,,,,,,,,,,,
골프스토리,실내골프/스크린골프,서울특별시 구로구 구로동 디지털로,에너지 회복; 스트레스 해소,,,,,,,,,,,,
WIN스크린골프,실내골프/스크린골프,서울특별시 구로구 구로동 디지털로33길,에너지 회복; 스트레스 해소,,,,,,,,,,,,
스카이스크린골프,실내골프/스크린골프,서울특별시 금천구 독산동 시흥대로,에너지 회복; 스트레스 해소,,,,,,,,,,,37.4669034,126.8978902
GLG휘트니스센터,헬스/휘트니스,서울특별시 영등포구 양평동4가 선유동2로,스트레스 해소; 감정 자극,,,,,,,,,,,37.5300409,126.8948261
쉐라톤휘트니스,헬스/휘트니스,서울특별시 구로구 구로동 디지털로34길,스트레스 해소; 감정 자극,,,,,,,,,,,,
대산골프연습장,실내골프/스크린골프,서울특별시 금천구 시흥동 시흥대로,에너지 회복; 스트레스 해소,,,,,,,,,,,37.4479738,126.9033279
금천스크린골프,실내골프/스크린골프,서울특별시 금천구 시흥동 시흥대로,에너지 회복; 스트레스 해소,,,,,,,,,,,37.4479738,126.9033279
피지에이골프스쿨,실내골프/스크린골프,서울특별시 금천구 시흥동 시흥대로,에너지 회복; 스트레스 해소,,,,,,,,,,,37.4479738,126.9033279
퓨어골프아카데미,실내골프/스크린골프,서울특별시 영등포구 영등포동8가 영중로41길,에너지 회복; 스트레스 해소,,,,,,,,,,,37.5286645,126.9048911
성산스크린골프존,실내골프/스크린골프,서울특별시 마포구 성산동 월드컵북로,에너지 회복; 스트레스 해소,,,,,,,,,,,37.5690037,126.9045248
신아골프스쿨,실내골프/스크린골프,서울특별시 마포구 성산동 월드컵로36길,에너지 회복; 스트레스 해소,,,,,,,,,,,37.566925,126.903779
카멜리아스포츠센터,실내골프/스크린골프,서울특별시 금천구 시흥동 금하로,에너지 회복; 스트레스 해소,,,,,,,,,,,37.4516854,126.9073247
골프캠프,실내골프/스크린골프,서울특별시 동작구 신대방동 시흥대로,에너지 회복; 스트레스 해소,,,,,,,,,,,,
현대스크린골프,실내골프/스크린골프,서울특별시 동작구 신대방동 여의대방로,에너지 회복; 스트레스 해소,,,,,,,,,,,37.4967762,126.9159857
엠파이어리버,실내골프/스크린골프,서울특별시 마포구 합정동 양화로,에너지 회복; 스트레스 해소,,,,,,,,,,,37.5494459,126.9136202
갤러리골프스쿨,실내골프/스크린골프,서울특별시 은평구 갈현동 서오릉로,에너지 회복; 스트레스 해소,,,,,,,,,,,37.6166188,126.9071802
VR골프연습장,실내골프/스크린골프,서울특별시 은평구 역촌동 연서로,에너지 회복; 스트레스 해소,,,,,,,,,,,37.6024408,126.9158238
한마음골프스쿨,실내골프/스크린골프,서울특별시 관악구 신림동 남부순환로,에너지 회복; 스트레스 해소,,,,,,,,,,,37.4840758,126.9279131
서교스크린,실내골프/스크린골프,서울특별시 마포구 서교동 월드컵북로7길,에너지 회복; 스트레스 해소,,,,,,,,,,,37.5579021,126.9166593
W스크린골프존,실내골프/스크린골프,서울특별시 서대문구 남가좌동 모래내로,에너지 회복; 스트레스 해소,,,,,,,,,,,37.5761323,126.9268048
에스디골프클럽,실내골프/스크린골프,서울특별시 마포구 서교동 월드컵북로,에너지 회복; 스트레스 해소,,,,,,,,,,,37.5567685,126.9196652
비앤비골프연습장,실내골프/스크린골프,서울특별시 은평구 응암동 은평로,에너지 회복; 스트레스 해소,,,,,,,,,,,,
파인골프클럽,실외골프연습장,서울특별시 마포구 합정동 독막로,에너지 회복; 스트레스 해소,,,,,,,,,,,37.5484508,126.9158484
연신내스크린골프,실내골프/스크린골프,서울특별시 은평구 갈현동 통일로83길,에너지 회복; 스트레스 해소,,,,,,,,,,,,
보라매스크린골프,실내골프/스크린골프,서울특별시 동작구 신대방동 보라매로5길,에너지 회복; 스트레스 해소,,,,,,,,,,,37.4909608,126.9228422
홀인원골프연습장,실외골프연습장,서울특별시 은평구 역촌동 서오릉로,에너지 회복; 스트레스 해소,,,,,,,,,,,37.610404,126.9176978
동작II스크린골프,실내골프/스크린골프,서울특별시 동작구 대방동 여의대방로,에너지 회복; 스트레스 해소,,,,,,,,,,,37.5077321,126.923499
문스크린골프존,실내골프/스크린골프,서울특별시 은평구 응암동 은평로11길,에너지 회복; 스트레스 해소,,,,,,,,,,,,
비알휘트니스,헬스/휘트니스,서울특별시 마포구 상수동 독막로,스트레스 해소; 감정 자극,,,,,,,,,,,,
드림골프연습장,실내골프/스크린골프,서울특별시 관악구 신림동 봉천로,에너지 회복; 스트레스 해소,,,,,,,,,,,37.4883952,126.9301212
여의도스크린,실내골프/스크린골프,서울특별시 영등포구 여의도동 국제금융로6길,에너지 회복; 스트레스 해소,,,,,,,,,,,37.521872,126.9275525
위너스스크린골프,실내골프/스크린골프,서울특별시 관악구 신림동 신림로,에너지 회복; 스트레스 해소,,,,,,,,,,,37.4739083,126.9335176
아일랜드토탈휘트니스,헬스/휘트니스,서울특별시 관악구 신림동 신림로64길,스트레스 해소; 감정 자극,,,,,,,,,,,37.4851775,126.931894
비바스크린골프,실내골프/스크린골프,서울특별시 영등포구 여의도동 여의대방로67길,에너지 회복; 스트레스 해소,,,,,,,,,,,37.520034,126.9303173
이프로골프스쿨,실내골프/스크린골프,서울특별시 마포구 창전동 서강로9길,에너지 회복; 스트레스 해소,,,,,,,,,,,,
마포스크린골프,실내골프/스크린골프,서울특별시 마포구 구수동 창전로,에너지 회복; 스트레스 해소,,,,,,,,,,,37.545109,126.9313812
일레인스포츠,실내골프/스크린골프,서울특별시 영등포구 여의도동 국제금융로,에너지 회복; 스트레스 해소,,,,,,,,,,,37.5255491,126.9274753
대호골프스쿨,실내골프/스크린골프,서울특별시 은평구 불광동 불광로,에너지 회복; 스트레스 해소,,,,,,,,,,,37.6193448,126.9319202
한독골프연습장,실내골프/스크린골프,서울특별시 서대문구 홍은동 연희로,에너지 회복; 스트레스 해소,,,,,,,,,,,37.5911404,126.9407456
필드스토리,실내골프/스크린골프,서울특별시 마포구 용강동 토정로,에너지 회복; 스트레스 해소,,,,,,,,,,,37.540795,126.9428921
상도골골프연습장,실내골프/스크린골프,서울특별시 동작구 상도동 양녕로26길,에너지 회복; 스트레스 해소,,,,,,,,,,,37.4971266,126.9440442
삼창스크린골프,실내골프/스크린골프,서울특별시 마포구 도화동 마포대로,에너지 회복; 스트레스 해소,,,,,,,,,,,37.5367823,126.9418272
공덕스크린,실내골프/스크린골프,서울특별시 마포구 도화동 독막로,에너지 회복; 스트레스 해소,,,,,,,,,,,37.5428706,126.9487736
KOHAN스포티지,실내골프/스크린골프,서울특별시 관악구 봉천동 관악로,에너지 회복; 스트레스 해소,,,,,,,,,,,37.4812588,126.9527443
토탈스포츠센터,실내골프/스크린골프,서울특별시 마포구 신공덕동 만리재옛길,에너지 회복; 스트레스 해소,,,,,,,,,,,,
마포스크린골프클럽,실내골프/스크린골프,서울특별시 마포구 신공덕동 만리재옛길,에너지 회복; 스트레스 해소,,,,,,,,,,,,
시카고스크린골프,실내골프/스크린골프,서울특별시 마포구 아현동 마포대로,에너지 회복; 스트레스 해소,,,,,,,,,,,37.55158,126.9556528
로제우스레포츠센터골프연습장,실내골프/스크린골프,서울특별시 종로구 구기동 진흥로,에너지 회복; 스트레스 해소,,,,,,,,,,,37.6086262,126.955634
누리온가족건강센터,헬스/휘트니스,서울특별시 서대문구 영천동 독립문로,스트레스 해소; 감정 자극,,,,,,,,,,,37.5699403,126.9614259
구기스크린골프연습장,실내골프/스크린골프,서울특별시 종로구 구기동 진흥로,에너지 회복; 스트레스 해소,,,,,,,,,,,37.6086262,126.955634
경기골프스쿨,실내골프/스크린골프,서울특별시 서대문구 충정로2가 경기대로,에너지 회복; 스트레스 해소,,,,,,,,,,,37.5624361,126.9618463
이수스크린골프,실내골프/스크린골프,서울특별시 동작구 사당동 사당로17길,에너지 회복; 스트레스 해소,,,,,,,,,,,37.4849092,126.9734819
동아골프연습장,실내골프/스크린골프,서울특별시 중구 북창동 남대문로1길,에너지 회복; 스트레스 해소,,,,,,,,,,,37.5627755,126.9773205
화인골프,실내골프/스크린골프,서울특별시 용산구 이촌동 이촌로,에너지 회복; 스트레스 해소,,,,,,,,,,,37.5220444,126.963533
방배스크린골프존,실내골프/스크린골프,서울특별시 서초구 방배동 방배천로,에너지 회복; 스트레스 해소,,,,,,,,,,,,
시드니골프아카데미,실내골프/스크린골프,서울특별시 서초구 방배동 동작대로,에너지 회복; 스트레스 해소,,,,,,,,,,,,
레몬스크린골프,실내골프/스크린골프,서울특별시 종로구 관철동 청계천로,에너지 회복; 스트레스 해소,,,,,,,,,,,37.568345,126.989969
SBS골프아카데미,실내골프/스크린골프,서울특별시 서초구 방배동 방배중앙로,에너지 회복; 스트레스 해소,,,,,,,,,,,,
김소영골프스쿨,실내골프/스크린골프,서울특별시 서초구 방배동 방배로,에너지 회복; 스트레스 해소,,,,,,,,,,,37.4783113,126.9997061
엑스윈스크린골프,실내골프/스크린골프,서울특별시 중구 저동2가 수표로,에너지 회복; 스트레스 해소,,,,,,,,,,,37.5641048,126.990129
스크린파크,실내골프/스크린골프,서울특별시 서초구 방배동 방배로,에너지 회복; 스트레스 해소,,,,,,,,,,,37.4783113,126.9997061
비쥬얼테크닉스,실내골프/스크린골프,서울특별시 중구 을지로3가 을지로,에너지 회복; 스트레스 해소,,,,,,,,,,,37.5668018,127.0001915
하나스크린골프,실내골프/스크린골프,서울특별시 서초구 방배동 방배로,에너지 회복; 스트레스 해소,,,,,,,,,,,37.4783113,126.9997061
수남스크린골프,실내골프/스크린골프,서울특별시 중구 인현동2가 퇴계로41길,에너지 회복; 스트레스 해소,,,,,,,,,,,37.5630246,126.9961343
이지골프클리닉,실내골프/스크린골프,서울특별시 서초구 방배동 방배로8길,에너지 회복; 스트레스 해소,,,,,,,,,,,37.4794981,126.9997398
코리아스크린골프,실내골프/스크린골프,서울특별시 중구 주교동 청계천로,에너지 회복; 스트레스 해소,,,,,,,,,,,37.568923,126.9996513
비에스골프아카데미,실내골프/스크린골프,서울특별시 서초구 반포동 사평대로28길,에너지 회복; 스트레스 해소,,,,,,,,,,,,
에이스골프연습장,실내골프/스크린골프,서울특별시 서초구 방배동 방배로,에너지 회복; 스트레스 해소,,,,,,,,,,,37.4783113,126.9997061
대호골프연습장,실내골프/스크린골프,서울특별시 종로구 연지동 김상옥로,에너지 회복; 스트레스 해소,,,,,,,,,,,37.5732512,127.0012494
풀스윙,실내골프/스크린골프,서울특별시 중구 오장동 동호로33길,에너지 회복; 스트레스 해소,,,,,,,,,,,37.5654058,127.0006531
한경스포츠클럽골프연습장,실내골프/스크린골프,서울특별시 서초구 반포동 신반포로,에너지 회복; 스트레스 해소,,,,,,,,,,,37.5044399,126.9996177
한남스포렉스,실내골프/스크린골프,서울특별시 용산구 한남동 독서당로,에너지 회복; 스트레스 해소,,,,,,,,,,,37.5331534,127.0072808
골프존파크,실내골프/스크린골프,서울특별시 중구 광희동2가 장충단로,에너지 회복; 스트레스 해소,,,,,,,,,,,,
미소골프아카데미,실내골프/스크린골프,서울특별시 서초구 서초동 반포대로,에너지 회복; 스트레스 해소,,,,,,,,,,,,
남산타운골프연습장,실내골프/스크린골프,서울특별시 중구 신당동 다산로,에너지 회복; 스트레스 해소,,,,,,,,,,,37.5627173,127.01522
4D스크린골프,실내골프/스크린골프,서울특별시 서초구 서초동 서초대로,에너지 회복; 스트레스 해소,,,,,,,,,,,37.4943665,127.0161747
조이스크린골프,실내골프/스크린골프,서울특별시 서초구 서초동 법원로2길,에너지 회복; 스트레스 해소,,,,,,,,,,,,
레포세움,실내골프/스크린골프,서울특별시 서초구 서초동 서초중앙로,에너지 회복; 스트레스 해소,,,,,,,,,,,37.4875623,127.0147933
맨하탄골프존,실내골프/스크린골프,서울특별시 중구 신당동 마장로1길,에너지 회복; 스트레스 해소,,,,,,,,,,,37.5687305,127.0122583
하나골프,실내골프/스크린골프,서울특별시 강북구 미아동 솔샘로,에너지 회복; 스트레스 해소,,,,,,,,,,,,
충무스크린,실내골프/스크린골프,서울특별시 중구 신당동 퇴계로73가길,에너지 회복; 스트레스 해소,,,,,,,,,,,37.5667214,127.0133773
고산자로,실내골프/스크린골프,서울특별시 서초구 서초동 서초중앙로,에너지 회복; 스트레스 해소,,,,,,,,,,,37.4875623,127.0147933
파워골프아카데미,실내골프/스크린골프,서울특별시 서초구 서초동 서초중앙로,에너지 회복; 스트레스 해소,,,,,,,,,,,37.4875623,127.0147933
서초리얼스크린골프,실내골프/스크린골프,서울특별시 서초구 서초동 서초중앙로,에너지 회복; 스트레스 해소,,,,,,,,,,,37.4875623,127.0147933
WIN스크린,실내골프/스크린골프,서울특별시 서초구 서초동 서초중앙로,에너지 회복; 스트레스 해소,,,,,,,,,,,37.4875623,127.0147933
삼오골프,실내골프/스크린골프,서울특별시 종로구 창신동 지봉로5길,에너지 회복; 스트레스 해소,,,,,,,,,,,,
리젠휘트니스,헬스/휘트니스,서울특별시 종로구 창신동 지봉로,스트레스 해소; 감정 자극,,,,,,,,,,,,
교대스크린골프,실내골프/스크린골프,서울특별시 서초구 서초동 서초대로,에너지 회복; 스트레스 해소,,,,,,,,,,,37.4943665,127.0161747
민스골프스쿨,실내골프/스크린골프,서울특별시 성북구 정릉동 북악산로,에너지 회복; 스트레스 해소,,,,,,,,,,,,
온그린골프앤스크린,실내골프/스크린골프,서울특별시 성동구 옥수동 한림말길,에너지 회복; 스트레스 해소,,,,,,,,,,,37.540412,127.0133075
비앤비스크린골프,실내골프/스크린골프,서울특별시 성북구 동선동4가 동소문로,에너지 회복; 스트레스 해소,,,,,,,,,,,37.5945874,127.0192647
월드골프스크린,실내골프/스크린골프,서울특별시 성동구 금호동4가 독서당로,에너지 회복; 스트레스 해소,,,,,,,,,,,37.5457037,127.0174186
신사스크린골프,실내골프/스크린골프,서울특별시 강남구 논현동 강남대로150길,에너지 회복; 스트레스 해소,,,,,,,,,,,,
골프존24시스크린골프,실내골프/스크린골프,서울특별시 강북구 번동 덕릉로,에너지 회복; 스트레스 해소,,,,,,,,,,,37.6348601,127.0299772
우정휘트니스,헬스/휘트니스,서울특별시 서초구 서초동 강남대로,스트레스 해소; 감정 자극,,,,,,,,,,,37.500088,127.0262063
백운골프연습장,실내골프/스크린골프,서울특별시 강북구 번동 도봉로,에너지 회복; 스트레스 해소,,,,,,,,,,,,
스포라이프,실내골프/스크린골프,서울특별시 강남구 논현동 논현로,에너지 회복; 스트레스 해소,,,,,,,,,,,37.5181326,127.0287585
노바휘트니스센터,헬스/휘트니스,서울특별시 강남구 역삼동 강남대로,스트레스 해소; 감정 자극,,,,,,,,,,,,
랜드마크연습장,실내골프/스크린골프,서울특별시 강남구 역삼동 강남대로,에너지 회복; 스트레스 해소,,,,,,,,,,,,
그린골프클럽,실내골프/스크린골프,서울특별시 도봉구 방학동 방학로,에너지 회복; 스트레스 해소,,,,,,,,,,,,
VR스크린골프,실내골프/스크린골프,서울특별시 성동구 홍익동 청계천로,에너지 회복; 스트레스 해소,,,,,,,,,,,,
명인스크린,실내골프/스크린골프,서울특별시 강남구 역삼동 역삼로11길,에너지 회복; 스트레스 해소,,,,,,,,,,,,
E골프스쿨,실내골프/스크린골프,서울특별시 강북구 미아동 월계로7나길,에너지 회복; 스트레스 해소,,,,,,,,,,,,
렉스피트니스,헬스/휘트니스,서울특별시 성동구 행당동 왕십리로,스트레스 해소; 감정 자극,,,,,,,,,,,37.5585868,127.0379182
제이탑휘트니스클럽,헬스/휘트니스,서울특별시 강남구 도곡동 남부순환로,스트레스 해소; 감정 자극,,,,,,,,,,,37.4852848,127.0389229
한양골프,실내골프/스크린골프,서울특별시 강남구 신사동 압구정로,에너지 회복; 스트레스 해소,,,,,,,,,,,37.5236257,127.0215285
아이스크린골프,실내골프/스크린골프,서울특별시 강남구 도곡동 도곡로,에너지 회복; 스트레스 해소,,,,,,,,,,,37.4932782,127.0437644
대림골프,실내골프/스크린골프,서울특별시 성동구 응봉동 고산자로,에너지 회복; 스트레스 해소,,,,,,,,,,,37.5505727,127.035668
더핀스크린골프,실내골프/스크린골프,서울특별시 강남구 역삼동 논현로,에너지 회복; 스트레스 해소,,,,,,,,,,,37.498287,127.0381392
MG골프클럽,실내골프/스크린골프,서울특별시 강남구 논현동 봉은사로37길,에너지 회복; 스트레스 해소,,,,,,,,,,,,
제이투에스,실내골프/스크린골프,서울특별시 강남구 도곡동 도곡로,에너지 회복; 스트레스 해소,,,,,,,,,,,37.4932782,127.0437644
양재스크린골프,실내골프/스크린골프,서울특별시 서초구 양재동 바우뫼로37길,에너지 회복; 스트레스 해소,,,,,,,,,,,,
드림골프스토리,실내골프/스크린골프,서울특별시 강북구 번동 오현로,에너지 회복; 스트레스 해소,,,,,,,,,,,37.6272137,127.0372433
도곡스크린골프,실내골프/스크린골프,서울특별시 강남구 도곡동 도곡로,에너지 회복; 스트레스 해소,,,,,,,,,,,37.4932782,127.0437644
C앤G골프클럽,실내골프/스크린골프,서울특별시 강남구 역삼동 언주로99길,에너지 회복; 스트레스 해소,,,,,,,,,,,,
한미골프연습장,실내골프/스크린골프,서울특별시 강남구 역삼동 도곡로,에너지 회복; 스트레스 해소,,,,,,,,,,,,
AT스크린골프,실내골프/스크린골프,서울특별시 서초구 양재동 강남대로6길,에너지 회복; 스트레스 해소,,,,,,,,,,,37.4669866,127.0430602
양재제일골프연습장,실내골프/스크린골프,서울특별시 서초구 양재동 마방로,에너지 회복; 스트레스 해소,,,,,,,,,,,37.4757557,127.0417177
VR골프,실내골프/스크린골프,서울특별시 강남구 삼성동 학동로,에너지 회복; 스트레스 해소,,,,,,,,,,,37.5193563,127.0535902
상진골프클럽,실내골프/스크린골프,서울특별시 도봉구 쌍문동 도봉로,에너지 회복; 스트레스 해소,,,,,,,,,,,,
상록스포렉스,실내골프/스크린골프,서울특별시 강남구 역삼동 언주로,에너지 회복; 스트레스 해소,,,,,,,,,,,37.4963919,127.0458068
서울숲골프아카데미,실내골프/스크린골프,서울특별시 성동구 성수동1가 서울숲길,에너지 회복; 스트레스 해소,,,,,,,,,,,,
강남스크린골프,실내골프/스크린골프,서울특별시 강남구 역삼동 언주로86길,에너지 회복; 스트레스 해소,,,,,,,,,,,37.5026188,127.0462544
KJ골프스쿨,실내골프/스크린골프,서울특별시 도봉구 방학동 도봉로,에너지 회복; 스트레스 해소,,,,,,,,,,,,
휴스크린골프,실내골프/스크린골프,서울특별시 강남구 역삼동 테헤란로44길,에너지 회복; 스트레스 해소,,,,,,,,,,,37.5020012,127.0453325
VR골프매봉스크린,실내골프/스크린골프,서울특별시 강남구 도곡동 논현로28길,에너지 회복; 스트레스 해소,,,,,,,,,,,,
제네시스휘트니스,헬스/휘트니스,서울특별시 강남구 역삼동 테헤란로48길,스트레스 해소; 감정 자극,,,,,,,,,,,37.5029974,127.0459168
워터파크골프연습장,실내골프/스크린골프,서울특별시 성동구 성수동1가 왕십리로,에너지 회복; 스트레스 해소,,,,,,,,,,,37.5397618,127.04374
탑스크린골프,실내골프/스크린골프,서울특별시 도봉구 창동 노해로65길,에너지 회복; 스트레스 해소,,,,,,,,,,,,
역삼아이파크스크린,실내골프/스크린골프,서울특별시 강남구 역삼동 역삼로,에너지 회복; 스트레스 해소,,,,,,,,,,,37.4995545,127.0478452
월드골프스쿨,실내골프/스크린골프,서울특별시 도봉구 방학동 마들로,에너지 회복; 스트레스 해소,,,,,,,,,,,,
상록스크린골프,실내골프/스크린골프,서울특별시 도봉구 도봉동 마들로,에너지 회복; 스트레스 해소,,,,,,,,,,,,
유진스크린골프,실내골프/스크린골프,서울특별시 성동구 성수동1가 상원길,에너지 회복; 스트레스 해소,,,,,,,,,,,,
샹제리제휘트니스클럽,헬스/휘트니스,서울특별시 강남구 대치동 테헤란로,스트레스 해소; 감정 자극,,,,,,,,,,,,
도봉스크린골프,실내골프/스크린골프,서울특별시 도봉구 방학동 마들로,에너지 회복; 스트레스 해소,,,,,,,,,,,,
창도골프스쿨,실내골프/스크린골프,서울특별시 도봉구 창동 노해로69길,에너지 회복; 스트레스 해소,,,,,,,,,,,,
청담스크린골프,실내골프/스크린골프,서울특별시 강남구 청담동 학동로,에너지 회복; 스트레스 해소,,,,,,,,,,,37.5181087,127.0457549
한티스크린골프,실내골프/스크린골프,서울특별시 강남구 대치동 선릉로,에너지 회복; 스트레스 해소,,,,,,,,,,,,
제이슨골프아카데미,실내골프/스크린골프,서울특별시 강남구 삼성동 삼성로,에너지 회복; 스트레스 해소,,,,,,,,,,,,
골든메카스크린골프,실내골프/스크린골프,서울특별시 동대문구 답십리동 천호대로69길,에너지 회복; 스트레스 해소,,,,,,,,,,,37.56935,127.0523585
클럽300,실내골프/스크린골프,서울특별시 강남구 대치동 테헤란로70길,에너지 회복; 스트레스 해소,,,,,,,,,,,,
인골프,실내골프/스크린골프,서울특별시 강남구 대치동 삼성로85길,에너지 회복; 스트레스 해소,,,,,,,,,,,,
굿모닝골프스쿨,실내골프/스크린골프,서울특별시 성동구 성수동2가 뚝섬로,에너지 회복; 스트레스 해소,,,,,,,,,,,37.5380483,127.0579596
씨티스크린골프,실내골프/스크린골프,서울특별시 강남구 대치동 도곡로,에너지 회복; 스트레스 해소,,,,,,,,,,,37.5001811,127.0648705
테헤란스크린골프,실내골프/스크린골프,서울특별시 강남구 삼성동 테헤란로,에너지 회복; 스트레스 해소,,,,,,,,,,,37.5082495,127.060653
VR골프아이골프점,실내골프/스크린골프,서울특별시 강남구 삼성동 학동로,에너지 회복; 스트레스 해소,,,,,,,,,,,37.5193563,127.0535902
성동코레월드,실내골프/스크린골프,서울특별시 성동구 성수동2가 뚝섬로,에너지 회복; 스트레스 해소,,,,,,,,,,,37.5380483,127.0579596
삼성스크린골프존,실내골프/스크린골프,서울특별시 강남구 대치동 테헤란로,에너지 회복; 스트레스 해소,,,,,,,,,,,,
언더파스크린골프,실내골프/스크린골프,서울특별시 동대문구 전농동 사가정로,에너지 회복; 스트레스 해소,,,,,,,,,,,37.5747671,127.0536195
세븐아이언,실내골프/스크린골프,서울특별시 노원구 상계동 동일로,에너지 회복; 스트레스 해소,,,,,,,,,,,,
은마스크린골프,실내골프/스크린골프,서울특별시 강남구 대치동 도곡로,에너지 회복; 스트레스 해소,,,,,,,,,,,37.5001811,127.0648705
대치스크린골프,실내골프/스크린골프,서울특별시 강남구 대치동 도곡로,에너지 회복; 스트레스 해소,,,,,,,,,,,37.5001811,127.0648705
매경쇼,실내골프/스크린골프,서울특별시 강남구 대치동 영동대로,에너지 회복; 스트레스 해소,,,,,,,,,,,37.5018574,127.0671243
에스스크린골프,실내골프/스크린골프,서울특별시 노원구 상계동 동일로218길,에너지 회복; 스트레스 해소,,,,,,,,,,,,
웰빙라이프휘트니스,헬스/휘트니스,서울특별시 노원구 상계동 상계로,스트레스 해소; 감정 자극,,,,,,,,,,,37.6614689,127.0739292
서울숲스크린골프,실내골프/스크린골프,서울특별시 성동구 성수동2가 광나루로,에너지 회복; 스트레스 해소,,,,,,,,,,,,
와우멀티짐앤골프,실내골프/스크린골프,서울특별시 노원구 상계동 노해로,에너지 회복; 스트레스 해소,,,,,,,,,,,,
서울레저한강골프,실내골프/스크린골프,서울특별시 광진구 자양동 능동로,에너지 회복; 스트레스 해소,,,,,,,,,,,37.5375517,127.0696332
노원스크린,실내골프/스크린골프,서울특별시 노원구 상계동 노해로,에너지 회복; 스트레스 해소,,,,,,,,,,,,
휘경골프연습장,실내골프/스크린골프,서울특별시 동대문구 휘경동 망우로,에너지 회복; 스트레스 해소,,,,,,,,,,,37.5899957,127.0624325
태초골프스쿨,실내골프/스크린골프,서울특별시 광진구 자양동 뚝섬로35길,에너지 회복; 스트레스 해소,,,,,,,,,,,37.535875,127.0706455
이지골프클럽,실내골프/스크린골프,서울특별시 노원구 상계동 한글비석로,에너지 회복; 스트레스 해소,,,,,,,,,,,37.6604332,127.0719118
오케이골프아카데미,실내골프/스크린골프,서울특별시 노원구 공릉동 동일로197길,에너지 회복; 스트레스 해소,,,,,,,,,,,,
멀리건골프스쿨,실내골프/스크린골프,서울특별시 노원구 하계동 공릉로63길,에너지 회복; 스트레스 해소,,,,,,,,,,,37.6350362,127.0705813
AFO골프,실내골프/스크린골프,서울특별시 노원구 공릉동 동일로173가길,에너지 회복; 스트레스 해소,,,,,,,,,,,,
에이스스포츠클럽,실내골프/스크린골프,서울특별시 동대문구 장안동 장한로24길,에너지 회복; 스트레스 해소,,,,,,,,,,,,
클럽골프존,실내골프/스크린골프,서울특별시 동대문구 장안동 장한로18길,에너지 회복; 스트레스 해소,,,,,,,,,,,37.567135,127.0716446
하이원골프,실내골프/스크린골프,서울특별시 노원구 중계동 덕릉로73길,에너지 회복; 스트레스 해소,,,,,,,,,,,,
그린골프,실내골프/스크린골프,서울특별시 노원구 하계동 노원로,에너지 회복; 스트레스 해소,,,,,,,,,,,37.6381375,127.0770494
중계스크린골프장,실내골프/스크린골프,서울특별시 노원구 중계동 한글비석로15길,에너지 회복; 스트레스 해소,,,,,,,,,,,,
제이스크린골프,실내골프/스크린골프,서울특별시 노원구 중계동 덕릉로,에너지 회복; 스트레스 해소,,,,,,,,,,,,
비젼골프클럽,실내골프/스크린골프,서울특별시 노원구 중계동 한글비석로8길,에너지 회복; 스트레스 해소,,,,,,,,,,,37.6480656,127.0786049
OK스크린골프,실내골프/스크린골프,서울특별시 광진구 자양동 아차산로,에너지 회복; 스트레스 해소,,,,,,,,,,,37.5388422,127.0738801
골프랜드,실내골프/스크린골프,서울특별시 송파구 잠실동 백제고분로18길,에너지 회복; 스트레스 해소,,,,,,,,,,,,
중곡스크린골프,실내골프/스크린골프,서울특별시 광진구 중곡동 능동로,에너지 회복; 스트레스 해소,,,,,,,,,,,,
아놀드골프교실,실내골프/스크린골프,서울특별시 송파구 잠실동 삼전로,에너지 회복; 스트레스 해소,,,,,,,,,,,,
상봉골프스토리,실내골프/스크린골프,서울특별시 중랑구 상봉동 상봉중앙로8길,에너지 회복; 스트레스 해소,,,,,,,,,,,37.6031709,127.0909283
성진골프,실내골프/스크린골프,서울특별시 광진구 구의동 구의강변로,에너지 회복; 스트레스 해소,,,,,,,,,,,,
YN스크린골프,실내골프/스크린골프,서울특별시 광진구 구의동 아차산로,에너지 회복; 스트레스 해소,,,,,,,,,,,,
월드스크린골프,실내골프/스크린골프,서울특별시 광진구 구의동 광나루로56길,에너지 회복; 스트레스 해소,,,,,,,,,,,,
한강골프스쿨,실내골프/스크린골프,서울특별시 광진구 구의동 광나루로56길,에너지 회복; 스트레스 해소,,,,,,,,,,,,
스포트론,실내골프/스크린골프,서울특별시 송파구 석촌동 석촌호수로,에너지 회복; 스트레스 해소,,,,,,,,,,,37.5067677,127.1001782
지앤디골프아카데미,실내골프/스크린골프,서울특별시 송파구 신천동 올림픽로35길,에너지 회복; 스트레스 해소,,,,,,,,,,,37.5169572,127.1006557
세종스크린골프,실내골프/스크린골프,서울특별시 강남구 수서동 광평로51길,에너지 회복; 스트레스 해소,,,,,,,,,,,37.4900792,127.1014586
문스크린골프,실내골프/스크린골프,서울특별시 송파구 문정동 송파대로27길,에너지 회복; 스트레스 해소,,,,,,,,,,,,
현골프아카데미,실내골프/스크린골프,서울특별시 송파구 방이동 오금로31길,에너지 회복; 스트레스 해소,,,,,,,,,,,,
브리티쉬스크린골프,실내골프/스크린골프,서울특별시 송파구 방이동 마천로,에너지 회복; 스트레스 해소,,,,,,,,,,,,
강동스크린골프,실내골프/스크린골프,서울특별시 강동구 성내동 성내로6길,에너지 회복; 스트레스 해소,,,,,,,,,,,37.5284009,127.1223568
포인트골프클리닉,실내골프/스크린골프,서울특별시 강동구 성내동 성내로,에너지 회복; 스트레스 해소,,,,,,,,,,,37.5287555,127.1254049
골프인파라다이스,실내골프/스크린골프,서울특별시 송파구 오금동 중대로25길,에너지 회복; 스트레스 해소,,,,,,,,,,,37.5030292,127.1275069
버디스크린골프존,실내골프/스크린골프,서울특별시 송파구 오금동 위례성대로,에너지 회복; 스트레스 해소,,,,,,,,,,,37.5102891,127.1314015
로진스크린골프,실내골프/스크린골프,서울특별시 송파구 오금동 중대로,에너지 회복; 스트레스 해소,,,,,,,,,,,37.503889,127.1299629
E골프하우스,실내골프/스크린골프,서울특별시 강동구 성내동 양재대로,에너지 회복; 스트레스 해소,,,,,,,,,,,,
웰빙휘트니스프라자,헬스/휘트니스,서울특별시 강동구 천호동 구천면로,스트레스 해소; 감정 자극,,,,,,,,,,,37.5429218,127.1192777
메이져스크린골프,실내골프/스크린골프,서울특별시 송파구 가락동 동남로18길,에너지 회복; 스트레스 해소,,,,,,,,,,,,
성심스크린골프,실내골프/스크린골프,서울특별시 강동구 길동 천호대로,에너지 회복; 스트레스 해소,,,,,,,,,,,37.5372256,127.1503731
마스터골프연습장,실내골프/스크린골프,서울특별시 송파구 오금동 동남로,에너지 회복; 스트레스 해소,,,,,,,,,,,37.5056449,127.1391853
노블휘트니스,헬스/휘트니스,서울특별시 강동구 길동 양재대로,스트레스 해소; 감정 자극,,,,,,,,,,,37.5375025,127.1398729
삼손골프연습장,실내골프/스크린골프,서울특별시 강동구 명일동 양재대로,에너지 회복; 스트레스 해소,,,,,,,,,,,,
그린파크골프연습장,실내골프/스크린골프,서울특별시 강동구 명일동 명일로,에너지 회복; 스트레스 해소,,,,,,,,,,,37.5519039,127.1497771
명일스크린골프,실내골프/스크린골프,서울특별시 강동구 명일동 동남로,에너지 회복; 스트레스 해소,,,,,,,,,,,37.5432983,127.1544955
21세기스포츠센터,헬스/휘트니스,서울특별시 송파구 방이동 가락로,스트레스 해소; 감정 자극,,,,,,,,,,,,
PARK61,헬스/휘트니스,서울특별시 강남구 역삼동 테헤란로2길,스트레스 해소; 감정 자극,,,,,,,,,,,,
잉어이야기,실내낚시터,서울특별시 관악구 신림동 남부순환로,안정감; 감정 정화,,,,,,,,,,,37.4840758,126.9279131
엑스포헬스,헬스/휘트니스,서울특별시 강북구 수유동 한천로,스트레스 해소; 감정 자극,,,,,,,,,,,,
쿠션당구장,당구장,서울특별시 도봉구 창동 도봉로110아길,스트레스 해소; 감정 자극,,,,,,,,,,,,
VIP당구클럽,당구장,서울특별시 도봉구 창동 덕릉로63가길,스트레스 해소; 감정 자극,,,,,,,,,,,,
비타민헬스,헬스/휘트니스,서울특별시 도봉구 창동 우이천로4길,스트레스 해소; 감정 자극,,,,,,,,,,,,
A1스크린골프,실내골프/스크린골프,서울특별시 강남구 논현동 논현로132길,에너지 회복; 스트레스 해소,,,,,,,,,,,,
조이골프,실내골프/스크린골프,서울특별시 서초구 서초동 효령로,에너지 회복; 스트레스 해소,,,,,,,,,,,37.4864209,127.0214463
동원스크린골프,실내골프/스크린골프,서울특별시 중구 남창동 남대문로,에너지 회복; 스트레스 해소,,,,,,,,,,,37.5614243,126.980168
오클랜드골프,실내골프/스크린골프,서울특별시 송파구 삼전동 석촌호수로,에너지 회복; 스트레스 해소,,,,,,,,,,,37.5071463,127.0933544
역발산골프,실내골프/스크린골프,서울특별시 광진구 화양동 능동로13길,에너지 회복; 스트레스 해소,,,,,,,,,,,37.5443871,127.0695053
서서울스크린골프,실내골프/스크린골프,서울특별시 강서구 내발산동 우장산로,에너지 회복; 스트레스 해소,,,,,,,,,,,37.5544243,126.8408943
에딘골프,실내골프/스크린골프,서울특별시 강동구 명일동 구천면로,에너지 회복; 스트레스 해소,,,,,,,,,,,37.549148,127.1509946
로얄스크린골프,실내골프/스크린골프,서울특별시 송파구 방이동 백제고분로,에너지 회복; 스트레스 해소,,,,,,,,,,,37.5133798,127.1141211
아차산체육공원아차산배수지축구장,지역축구장,서울특별시 광진구 구의동 천호대로,에너지 회복; 스트레스 해소,,,,,,,,,,,37.5488105,127.0931781
현대골프스쿨,실내골프/스크린골프,서울특별시 구로구 개봉동 개봉로20길,에너지 회복; 스트레스 해소,,,,,,,,,,,37.4927802,126.8599687
월드컵스포랜드,실내골프/스크린골프,서울특별시 마포구 성산동 월드컵로,에너지 회복; 스트레스 해소,,,,,,,,,,,37.5664374,126.8963377
방배멤피스골프스쿨,실내골프/스크린골프,서울특별시 서초구 방배동 방배로,에너지 회복; 스트레스 해소,,,,,,,,,,,37.4783113,126.9997061
스크린골프존골프크럽,실내골프/스크린골프,서울특별시 성동구 금호동1가 행당로6길,에너지 회복; 스트레스 해소,,,,,,,,,,,,
서경스크린골프,실내골프/스크린골프,서울특별시 종로구 숭인동 종로,에너지 회복; 스트레스 해소,,,,,,,,,,,37.5736453,127.0165769
매니아당구클럽,당구장,서울특별시 송파구 방이동 올림픽로32길,스트레스 해소; 감정 자극,,,,,,,,,,,37.5131686,127.110086
중곡문화체육센터,지역체육센터,서울특별시 광진구 중곡동 능동로,에너지 회복; 스트레스 해소,,,,,,,,,,,,
탑당구클럽,당구장,서울특별시 송파구 방이동 올림픽로32길,스트레스 해소; 감정 자극,,,,,,,,,,,37.5131686,127.110086
더스크린골프,실내골프/스크린골프,서울특별시 구로구 구로동 구일로10길,에너지 회복; 스트레스 해소,,,,,,,,,,,,
나인짐휘트니스,헬스/휘트니스,서울특별시 관악구 봉천동 관악로,스트레스 해소; 감정 자극,,,,,,,,,,,37.4812588,126.9527443
신월야구장,지역야구장,서울특별시 양천구 신월동 남부순환로64길,에너지 회복; 스트레스 해소,,,,,,,,,,,,
스포파크,헬스/휘트니스,서울특별시 금천구 가산동 가산디지털1로,스트레스 해소; 감정 자극,,,,,,,,,,,37.4776652,126.8827945
한울림탁구클럽,탁구장,서울특별시 강북구 미아동 도봉로,에너지 회복; 스트레스 해소,,,,,,,,,,,37.6227994,127.0275119
퍼플짐,헬스/휘트니스,서울특별시 동작구 사당동 동작대로,스트레스 해소; 감정 자극,,,,,,,,,,,,
FC서울홈구장,프로축구장,서울특별시 마포구 성산동 월드컵로,에너지 회복; 스트레스 해소,,,,,,,,,,,37.5664374,126.8963377
별당구장,당구장,서울특별시 마포구 상암동 월드컵북로48길,스트레스 해소; 감정 자극,,,,,,,,,,,37.5772758,126.895252
웰짐휘트니스,헬스/휘트니스,서울특별시 성동구 금호동3가 동호로,스트레스 해소; 감정 자극,,,,,,,,,,,37.5490133,127.0154125
더바디짐휘트니스,헬스/휘트니스,서울특별시 강북구 번동 도봉로,스트레스 해소; 감정 자극,,,,,,,,,,,,
골드당구장,당구장,서울특별시 관악구 봉천동 남부순환로,스트레스 해소; 감정 자극,,,,,,,,,,,37.4814856,126.9511662
월드컵파크골프장,실외골프연습장,서울특별시 마포구 상암동 하늘공원로,에너지 회복; 스트레스 해소,,,,,,,,,,,37.5734326,126.8833088
휘트니스존,헬스/휘트니스,서울특별시 송파구 삼전동 삼학사로,스트레스 해소; 감정 자극,,,,,,,,,,,37.502821,127.0970135
아메리카스포츠,헬스/휘트니스,서울특별시 중구 소공동 남대문로7길,스트레스 해소; 감정 자극,,,,,,,,,,,37.5637679,126.9816538
케어필라테스,헬스/휘트니스,서울특별시 서초구 서초동 서초대로51길,스트레스 해소; 감정 자극,,,,,,,,,,,,
J앤S필라테스,헬스/휘트니스,서울특별시 강남구 삼성동 봉은사로68길,스트레스 해소; 감정 자극,,,,,,,,,,,,
우노짐코리아,지역체육센터,서울특별시 중구 장충동1가 장충단로,에너지 회복; 스트레스 해소,,,,,,,,,,,37.5622474,127.0064864
조이휘트니스,헬스/휘트니스,서울특별시 구로구 구로동 구로중앙로,스트레스 해소; 감정 자극,,,,,,,,,,,37.5010998,126.8818877
왕당구장,당구장,서울특별시 강북구 미아동 솔샘로,스트레스 해소; 감정 자극,,,,,,,,,,,,
상암마린랜드,수상스포츠,서울특별시 마포구 상암동 마포나루길,감정 자극; 스트레스 해소,,,,,,,,,,,,
렉시짐,헬스/휘트니스,서울특별시 강동구 길동 진황도로,스트레스 해소; 감정 자극,,,,,,,,,,,37.5344914,127.1398536
일자산제1체육관,스포츠센터,서울특별시 강동구 둔촌동 동남로,에너지 회복; 스트레스 해소,,,,,,,,,,,37.5323074,127.1499941
어린이대공원어린이회관눈썰매장,눈썰매장,서울특별시 광진구 능동 광나루로,감정 자극; 스트레스 해소,,,,,,,,,,,37.5453803,127.0807122
스포맥스,헬스/휘트니스,서울특별시 송파구 가락동 송파대로28길,스트레스 해소; 감정 자극,,,,,,,,,,,37.4945055,127.1204267
한박실내낚시터,실내낚시터,서울특별시 광진구 자양동 자양로,안정감; 감정 정화,,,,,,,,,,,,
국사봉체육관,지역실내체육관,서울특별시 관악구 봉천동 국회단지길,에너지 회복; 스트레스 해소,,,,,,,,,,,,
K가락휘트니스,헬스/휘트니스,서울특별시 송파구 가락동 송파대로30길,스트레스 해소; 감정 자극,,,,,,,,,,,37.4952216,127.1198198
스포아미휘트니스,헬스/휘트니스,서울특별시 강남구 수서동 광평로,스트레스 해소; 감정 자극,,,,,,,,,,,37.4858354,127.0981081
포레스트휘트니스,헬스/휘트니스,서울특별시 중랑구 망우동 용마산로115길,스트레스 해소; 감정 자극,,,,,,,,,,,37.5985991,127.0977219
불암산종합스타디움,공설/시민운동장,서울특별시 노원구 공릉동 중계로,에너지 회복; 스트레스 해소,,,,,,,,,,,,
불암산종합스타디움배드민턴장,지역실내체육관,서울특별시 노원구 공릉동 중계로,에너지 회복; 스트레스 해소,,,,,,,,,,,,
계남다목적체육관,지역실내체육관,서울특별시 양천구 신정동 신정로,에너지 회복; 스트레스 해소,,,,,,,,,,,,
아이파크휘트니센터,헬스/휘트니스,서울특별시 강서구 등촌동 등촌로,스트레스 해소; 감정 자극,,,,,,,,,,,37.5405641,126.8637367
웰플러스휘트니스,헬스/휘트니스,서울특별시 광진구 자양동 자양로5길,스트레스 해소; 감정 자극,,,,,,,,,,,,
올림픽공원실내축구장,지역체육센터,서울특별시 송파구 방이동 올림픽로,에너지 회복; 스트레스 해소,,,,,,,,,,,,
제일당구장,당구장,서울특별시 강남구 삼성동 봉은사로,스트레스 해소; 감정 자극,,,,,,,,,,,37.5136222,127.0567549
이훈의에너지짐,헬스/휘트니스,서울특별시 은평구 대조동 불광로,스트레스 해소; 감정 자극,,,,,,,,,,,37.6099941,126.9283912
대성프라자수영장,일반수영장,서울특별시 성북구 석관동 화랑로,에너지 회복; 안정감,,,,,,,,,,,37.6115128,127.0595792
뉴타운수영장,일반수영장,서울특별시 성동구 용답동 천호대로,에너지 회복; 안정감,,,,,,,,,,,37.5718615,127.0440633
자성수영장,일반수영장,서울특별시 양천구 목동 목동중앙북로,에너지 회복; 안정감,,,,,,,,,,,,
신석수영장,일반수영장,서울특별시 마포구 신수동 대흥로,에너지 회복; 안정감,,,,,,,,,,,37.5444223,126.9387921
63스퀘어63헬스수영장,일반수영장,서울특별시 영등포구 여의도동 63로,에너지 회복; 안정감,,,,,,,,,,,,
반포한강공원반포수상스포츠,수상스포츠,서울특별시 용산구 용산동6가 ,감정 자극; 스트레스 해소,,,,,,,,,,,37.52352,126.9858
잠원수상레저,수상스포츠,서울특별시 서초구 잠원동 잠원로,감정 자극; 스트레스 해소,,,,,,,,,,,37.5167989,127.0101286
코오롱스포렉스수영장,일반수영장,서울특별시 서초구 서초동 서초대로70길,에너지 회복; 안정감,,,,,,,,,,,,
상암당구장,당구장,서울특별시 마포구 상암동 월드컵북로44길,스트레스 해소; 감정 자극,,,,,,,,,,,37.5766433,126.8950385
코끼리당구장,당구장,서울특별시 송파구 방이동 오금로11길,스트레스 해소; 감정 자극,,,,,,,,,,,37.5154261,127.1110745
보글당구장,당구장,서울특별시 송파구 방이동 올림픽로32길,스트레스 해소; 감정 자극,,,,,,,,,,,37.5131686,127.110086
우리당구장,당구장,서울특별시 송파구 방이동 올림픽로32길,스트레스 해소; 감정 자극,,,,,,,,,,,37.5131686,127.110086
아탑골프헬스,헬스/휘트니스,서울특별시 송파구 방이동 오금로11길,스트레스 해소; 감정 자극,,,,,,,,,,,37.5154261,127.1110745
빅볼당구장,당구장,서울특별시 송파구 방이동 오금로11길,스트레스 해소; 감정 자극,,,,,,,,,,,37.5154261,127.1110745
예준당구클럽,당구장,서울특별시 송파구 방이동 오금로11길,스트레스 해소; 감정 자극,,,,,,,,,,,37.5154261,127.1110745
당구마을,당구장,서울특별시 송파구 방이동 올림픽로30길,스트레스 해소; 감정 자극,,,,,,,,,,,,
리버스휘트니스,헬스/휘트니스,서울특별시 송파구 방이동 오금로,스트레스 해소; 감정 자극,,,,,,,,,,,,
휴당구장,당구장,서울특별시 송파구 방이동 올림픽로32길,스트레스 해소; 감정 자극,,,,,,,,,,,37.5131686,127.110086
면일체육문화센터,지역실내체육관,서울특별시 중랑구 망우동 용마산로100길,에너지 회복; 스트레스 해소,,,,,,,,,,,,
마루당구장,당구장,서울특별시 송파구 방이동 올림픽로32길,스트레스 해소; 감정 자극,,,,,,,,,,,37.5131686,127.110086
황제당구장,당구장,서울특별시 강남구 신사동 강남대로,스트레스 해소; 감정 자극,,,,,,,,,,,37.5219895,127.0175715
FROMNY,헬스/휘트니스,서울특별시 강남구 신사동 가로수길,스트레스 해소; 감정 자극,,,,,,,,,,,37.521084,127.0230203
JINSDIEHARD,헬스/휘트니스,서울특별시 강남구 신사동 가로수길,스트레스 해소; 감정 자극,,,,,,,,,,,37.521084,127.0230203
드래곤당구장,당구장,서울특별시 강남구 신사동 강남대로152길,스트레스 해소; 감정 자극,,,,,,,,,,,37.5187492,127.0241275
신의손,당구장,서울특별시 송파구 가락동 중대로9길,스트레스 해소; 감정 자극,,,,,,,,,,,37.4983413,127.1192373
제우스당구장,당구장,서울특별시 강남구 신사동 강남대로152길,스트레스 해소; 감정 자극,,,,,,,,,,,37.5187492,127.0241275
대영당구장,당구장,서울특별시 강남구 신사동 도산대로1길,스트레스 해소; 감정 자극,,,,,,,,,,,37.5194308,127.019472
POOL당구장,당구장,서울특별시 강남구 신사동 압구정로2길,스트레스 해소; 감정 자극,,,,,,,,,,,37.5196855,127.0204004
화랑태권도,지역실내체육관,서울특별시 강서구 화곡동 곰달래로49길,에너지 회복; 스트레스 해소,,,,,,,,,,,,
쇼골프,실외골프연습장,서울특별시 도봉구 도봉동 도봉로180길,에너지 회복; 스트레스 해소,,,,,,,,,,,,
학생체육관강서분관,지역실내체육관,서울특별시 양천구 신월동 월정로,에너지 회복; 스트레스 해소,,,,,,,,,,,37.532924,126.8363283
조인로드골프연습장,실내골프/스크린골프,서울특별시 강남구 일원동 양재대로33길,에너지 회복; 스트레스 해소,,,,,,,,,,,,
아이휘트니스,헬스/휘트니스,서울특별시 서초구 서초동 서초대로,스트레스 해소; 감정 자극,,,,,,,,,,,37.4943665,127.0161747
CN스포렉스,헬스/휘트니스,서울특별시 서초구 반포동 사평대로,스트레스 해소; 감정 자극,,,,,,,,,,,37.5014683,127.0018479
서울마리나,요트장,서울특별시 영등포구 여의도동 여의서로,스트레스 해소; 감정 자극,,,,,,,,,,,37.5336861,126.9132665
트라움앤24,헬스/휘트니스,서울특별시 강남구 역삼동 테헤란로,스트레스 해소; 감정 자극,,,,,,,,,,,37.5034432,127.0458432
월드짐휘트니스,헬스/휘트니스,서울특별시 강남구 역삼동 선릉로63길,스트레스 해소; 감정 자극,,,,,,,,,,,,
래미안휘트니스,헬스/휘트니스,서울특별시 강남구 역삼동 선릉로69길,스트레스 해소; 감정 자극,,,,,,,,,,,,
티샷골프연습장,실외골프연습장,서울특별시 강서구 등촌동 등촌로,에너지 회복; 스트레스 해소,,,,,,,,,,,37.5405641,126.8637367
광진구배드민턴전용체육관,지역체육센터,서울특별시 광진구 광장동 천호대로140길,에너지 회복; 스트레스 해소,,,,,,,,,,,37.5444482,127.100461
모비딕스크린골프,실내골프/스크린골프,서울특별시 강남구 역삼동 테헤란로,에너지 회복; 스트레스 해소,,,,,,,,,,,37.5034432,127.0458432
B앤B휘트니스,헬스/휘트니스,서울특별시 강남구 논현동 학동로,스트레스 해소; 감정 자극,,,,,,,,,,,37.5120112,127.0241112
무학봉체육관,지역체육센터,서울특별시 중구 신당동 난계로6길,에너지 회복; 스트레스 해소,,,,,,,,,,,,
풀스크린골프,실내골프/스크린골프,서울특별시 노원구 월계동 월계로55길,에너지 회복; 스트레스 해소,,,,,,,,,,,,
태종스크린골프,실내골프/스크린골프,서울특별시 성동구 마장동 마장로,에너지 회복; 스트레스 해소,,,,,,,,,,,37.5660242,127.037052
이글스크린골프,실내골프/스크린골프,서울특별시 구로구 신도림동 구로중앙로,에너지 회복; 스트레스 해소,,,,,,,,,,,37.5042759,126.8782905
더블휘트니스클럽,헬스/휘트니스,서울특별시 강북구 수유동 인수봉로,스트레스 해소; 감정 자극,,,,,,,,,,,37.6345746,127.0133352
코리아짐휘트니스,헬스/휘트니스,서울특별시 성북구 동선동1가 보문로34길,스트레스 해소; 감정 자극,,,,,,,,,,,37.5909355,127.0191774
레드휘트니스,헬스/휘트니스,서울특별시 은평구 갈현동 서오릉로,스트레스 해소; 감정 자극,,,,,,,,,,,37.6166188,126.9071802
맥스휘트니스센터,헬스/휘트니스,서울특별시 종로구 신영동 진흥로,스트레스 해소; 감정 자극,,,,,,,,,,,37.6038216,126.9615237
68골프클럽,실내골프/스크린골프,서울특별시 송파구 마천동 마천로,에너지 회복; 스트레스 해소,,,,,,,,,,,37.5005892,127.1434876
골프존,실내골프/스크린골프,서울특별시 강북구 미아동 도봉로,에너지 회복; 스트레스 해소,,,,,,,,,,,37.6227994,127.0275119
강산골프,실내골프/스크린골프,서울특별시 은평구 구산동 서오릉로,에너지 회복; 스트레스 해소,,,,,,,,,,,37.6129309,126.9137875
에이원스크린골프,실내골프/스크린골프,서울특별시 강남구 역삼동 선릉로,에너지 회복; 스트레스 해소,,,,,,,,,,,,
M2골프앤헬스크럽,실내골프/스크린골프,서울특별시 강남구 논현동 논현로,에너지 회복; 스트레스 해소,,,,,,,,,,,37.5181326,127.0287585
GU스크린골프,실내골프/스크린골프,서울특별시 서초구 서초동 반포대로28길,에너지 회복; 스트레스 해소,,,,,,,,,,,,
파72스크린골프,실내골프/스크린골프,서울특별시 강동구 성내동 강동대로,에너지 회복; 스트레스 해소,,,,,,,,,,,37.5269944,127.1215874
HK골프,실내골프/스크린골프,서울특별시 노원구 중계동 중계로,에너지 회복; 스트레스 해소,,,,,,,,,,,37.6413977,127.0832957
골프나라,실내골프/스크린골프,서울특별시 서초구 서초동 반포대로,에너지 회복; 스트레스 해소,,,,,,,,,,,,
저스트골프,실내골프/스크린골프,서울특별시 서초구 서초동 서초대로64길,에너지 회복; 스트레스 해소,,,,,,,,,,,37.4920147,127.0218635
국제골프스쿨,실내골프/스크린골프,서울특별시 서초구 서초동 효령로60길,에너지 회복; 스트레스 해소,,,,,,,,,,,37.4846446,127.018672
희망스크린골프존,실내골프/스크린골프,서울특별시 관악구 봉천동 남부순환로,에너지 회복; 스트레스 해소,,,,,,,,,,,37.4814856,126.9511662
백호스크린골프,실내골프/스크린골프,서울특별시 강동구 길동 천중로40길,에너지 회복; 스트레스 해소,,,,,,,,,,,37.539284,127.1382835
벙커샷스크린골프,실내골프/스크린골프,서울특별시 서초구 양재동 바우뫼로,에너지 회복; 스트레스 해소,,,,,,,,,,,,
삼성골프연습장,실내골프/스크린골프,서울특별시 영등포구 당산동5가 영신로,에너지 회복; 스트레스 해소,,,,,,,,,,,,
성광골프연습장,실내골프/스크린골프,서울특별시 구로구 신도림동 신도림로19길,에너지 회복; 스트레스 해소,,,,,,,,,,,37.5119938,126.8824423
에이스골프,실내골프/스크린골프,서울특별시 강남구 역삼동 논현로,에너지 회복; 스트레스 해소,,,,,,,,,,,37.498287,127.0381392
성대볼링센터,볼링장,서울특별시 동작구 상도동 상도로,스트레스 해소; 감정 자극,,,,,,,,,,,37.5030223,126.9360156
이글골프존,실내골프/스크린골프,서울특별시 광진구 중곡동 면목로,에너지 회복; 스트레스 해소,,,,,,,,,,,,
두산골프아카데미,실내골프/스크린골프,서울특별시 관악구 봉천동 봉천로,에너지 회복; 스트레스 해소,,,,,,,,,,,37.4826787,126.9495443
한일골프스쿨,실내골프/스크린골프,서울특별시 강북구 수유동 삼양로,에너지 회복; 스트레스 해소,,,,,,,,,,,37.6353867,127.0170277
오렌지휘트니스,헬스/휘트니스,서울특별시 구로구 고척동 경인로,스트레스 해소; 감정 자극,,,,,,,,,,,37.4975857,126.8637132
스카이당구장,당구장,서울특별시 강남구 일원동 일원로9길,스트레스 해소; 감정 자극,,,,,,,,,,,,
아프로스크린골프,실내골프/스크린골프,서울특별시 강남구 개포동 개포로109길,에너지 회복; 스트레스 해소,,,,,,,,,,,,
SM스크린골프,실내골프/스크린골프,서울특별시 강남구 일원동 일원로,에너지 회복; 스트레스 해소,,,,,,,,,,,37.4877698,127.0822928
매니아,당구장,서울특별시 송파구 석촌동 삼학사로12길,스트레스 해소; 감정 자극,,,,,,,,,,,37.5015567,127.0978406
삼손헬스크럽,헬스/휘트니스,서울특별시 송파구 삼전동 백제고분로,스트레스 해소; 감정 자극,,,,,,,,,,,37.5025616,127.0991797
올림픽헬스,헬스/휘트니스,서울특별시 강동구 성내동 강동대로,스트레스 해소; 감정 자극,,,,,,,,,,,37.5269944,127.1215874
필당구장,당구장,서울특별시 송파구 석촌동 가락로,스트레스 해소; 감정 자극,,,,,,,,,,,37.5005742,127.1070344
경희휘트니스클럽,헬스/휘트니스,서울특별시 송파구 송파동 가락로,스트레스 해소; 감정 자극,,,,,,,,,,,37.504081,127.1141497
르네상스당구클럽,당구장,서울특별시 송파구 가락동 중대로9길,스트레스 해소; 감정 자극,,,,,,,,,,,37.4983413,127.1192373
BMW당구클럽,당구장,서울특별시 송파구 가락동 중대로9길,스트레스 해소; 감정 자극,,,,,,,,,,,37.4983413,127.1192373
태산당구클럽,당구장,서울특별시 송파구 가락동 송이로20길,스트레스 해소; 감정 자극,,,,,,,,,,,37.4959522,127.1203472
아트,당구장,서울특별시 송파구 오금동 마천로15길,스트레스 해소; 감정 자극,,,,,,,,,,,37.5054963,127.1350002
메이저골프클럽,실내골프/스크린골프,서울특별시 송파구 문정동 중대로,에너지 회복; 스트레스 해소,,,,,,,,,,,,
현대남여헬스,헬스/휘트니스,서울특별시 송파구 오금동 동남로,스트레스 해소; 감정 자극,,,,,,,,,,,37.5056449,127.1391853
퀸스크린골프,실내골프/스크린골프,서울특별시 송파구 오금동 마천로,에너지 회복; 스트레스 해소,,,,,,,,,,,37.5073421,127.1289918
커브스,헬스/휘트니스,서울특별시 송파구 오금동 마천로,스트레스 해소; 감정 자극,,,,,,,,,,,37.5073421,127.1289918
한솔골프,실내골프/스크린골프,서울특별시 강남구 일원동 광평로10길,에너지 회복; 스트레스 해소,,,,,,,,,,,37.481006,127.0817113
삼원휘트니스,헬스/휘트니스,서울특별시 용산구 이태원동 회나무로26길,스트레스 해소; 감정 자극,,,,,,,,,,,37.5391946,126.9907369
레드클럽,헬스/휘트니스,서울특별시 강동구 성내동 양재대로89길,스트레스 해소; 감정 자극,,,,,,,,,,,,
오투스크린골프,실내골프/스크린골프,서울특별시 강동구 성내동 양재대로,에너지 회복; 스트레스 해소,,,,,,,,,,,,
런던클럽,당구장,서울특별시 강동구 천호동 올림픽로,스트레스 해소; 감정 자극,,,,,,,,,,,37.549006,127.1271375
청풍무관,지역실내체육관,서울특별시 강동구 천호동 상암로,에너지 회복; 스트레스 해소,,,,,,,,,,,37.5475395,127.1321945
해동검도,지역실내체육관,서울특별시 강동구 천호동 구천면로,에너지 회복; 스트레스 해소,,,,,,,,,,,37.5429218,127.1192777
동포권투체육관,지역실내체육관,서울특별시 강동구 천호동 올림픽로,에너지 회복; 스트레스 해소,,,,,,,,,,,37.549006,127.1271375
CURVES,헬스/휘트니스,서울특별시 강동구 암사동 올림픽로,스트레스 해소; 감정 자극,,,,,,,,,,,37.5585235,127.1306295
2PM당구클럽,당구장,서울특별시 강동구 암사동 상암로,스트레스 해소; 감정 자극,,,,,,,,,,,,
2PM스크린골프존,실내골프/스크린골프,서울특별시 강동구 암사동 상암로,에너지 회복; 스트레스 해소,,,,,,,,,,,,
Q당구클럽,당구장,서울특별시 강동구 암사동 상암로,스트레스 해소; 감정 자극,,,,,,,,,,,,
당구매니아,당구장,서울특별시 강동구 명일동 구천면로,스트레스 해소; 감정 자극,,,,,,,,,,,37.549148,127.1509946
명일휘트니스,헬스/휘트니스,서울특별시 강동구 명일동 구천면로,스트레스 해소; 감정 자극,,,,,,,,,,,37.549148,127.1509946
석호정,양궁장,서울특별시 중구 장충동2가 남산공원길,안정감; 사회적 연결,,,,,,,,,,,,
러쉬스포츠센터,헬스/휘트니스,서울특별시 서초구 양재동 마방로10길,스트레스 해소; 감정 자극,,,,,,,,,,,37.4749998,127.0444973
벤호건스크린골프,실내골프/스크린골프,서울특별시 중구 신당동 퇴계로86가길,에너지 회복; 스트레스 해소,,,,,,,,,,,,
파인힐스크린골프장,실내골프/스크린골프,서울특별시 노원구 공릉동 동일로,에너지 회복; 스트레스 해소,,,,,,,,,,,,
유진당구클럽,당구장,서울특별시 강동구 명일동 양재대로,스트레스 해소; 감정 자극,,,,,,,,,,,,
희망당구장,당구장,서울특별시 중구 서소문동 서소문로,스트레스 해소; 감정 자극,,,,,,,,,,,37.5622459,126.9702654
자마이카휘트니스,헬스/휘트니스,서울특별시 강동구 성내동 천호대로,스트레스 해소; 감정 자극,,,,,,,,,,,,
동양볼링장,볼링장,서울특별시 영등포구 문래동5가 선유로,스트레스 해소; 감정 자극,,,,,,,,,,,37.5194314,126.8893618
럭셔리스크린골프,실내골프/스크린골프,서울특별시 강남구 청담동 도산대로,에너지 회복; 스트레스 해소,,,,,,,,,,,37.5244899,127.0502131
서림당구장,당구장,서울특별시 영등포구 당산동3가 당산로,스트레스 해소; 감정 자극,,,,,,,,,,,37.5225075,126.8959049
CPS당구장,당구장,서울특별시 강남구 신사동 언주로172길,스트레스 해소; 감정 자극,,,,,,,,,,,37.5272393,127.0367434
그린당구장,당구장,서울특별시 영등포구 당산동6가 당산로47길,스트레스 해소; 감정 자극,,,,,,,,,,,,
합기도검무관,지역실내체육관,서울특별시 서대문구 홍은동 ,에너지 회복; 스트레스 해소,,,,,,,,,,,37.5933933,126.9375964
북아현체육관,지역실내체육관,서울특별시 서대문구 북아현동 북아현로,에너지 회복; 스트레스 해소,,,,,,,,,,,37.563293,126.9547724
파맥스스포츠,스포츠센터,서울특별시 서초구 방배동 방배로,에너지 회복; 스트레스 해소,,,,,,,,,,,37.4783113,126.9997061
종로당구장,당구장,서울특별시 종로구 종로5가 종로,스트레스 해소; 감정 자극,,,,,,,,,,,37.5714092,127.0078154
에버레저,요트장,서울특별시 광진구 광장동 아차산로,스트레스 해소; 감정 자극,,,,,,,,,,,37.547414,127.1064441
스포짐,헬스/휘트니스,서울특별시 은평구 역촌동 진흥로1길,스트레스 해소; 감정 자극,,,,,,,,,,,37.603298,126.919439
큐당구장,당구장,서울특별시 성동구 성수동2가 연무장길,스트레스 해소; 감정 자극,,,,,,,,,,,37.5411759,127.0595267
캥거루당구장,당구장,서울특별시 성동구 송정동 동일로,스트레스 해소; 감정 자극,,,,,,,,,,,37.5516914,127.0687294
광무체육관,지역실내체육관,서울특별시 동작구 노량진동 장승배기로,에너지 회복; 스트레스 해소,,,,,,,,,,,37.5093471,126.9401389
특실당구장,당구장,서울특별시 동대문구 휘경동 망우로,스트레스 해소; 감정 자극,,,,,,,,,,,37.5899957,127.0624325
벤츠스크린골프,실내골프/스크린골프,서울특별시 송파구 오금동 문정로,에너지 회복; 스트레스 해소,,,,,,,,,,,37.4992673,127.1408258
SK스크린골프,실내골프/스크린골프,서울특별시 영등포구 문래동3가 문래로,에너지 회복; 스트레스 해소,,,,,,,,,,,37.518627,126.8989195
국일관당구클럽,당구장,서울특별시 종로구 관수동 수표로,스트레스 해소; 감정 자극,,,,,,,,,,,37.5692537,126.9890922
문용당구장,당구장,서울특별시 송파구 방이동 올림픽로32길,스트레스 해소; 감정 자극,,,,,,,,,,,37.5131686,127.110086
코오롱당구장,당구장,서울특별시 영등포구 당산동1가 영등포로28길,스트레스 해소; 감정 자극,,,,,,,,,,,37.5197933,126.8986516
그린테니스,테니스장,서울특별시 서초구 내곡동 ,에너지 회복; 스트레스 해소,,,,,,,,,,,37.4534615,127.0664442
서울볼링장,볼링장,서울특별시 성북구 석관동 화랑로,스트레스 해소; 감정 자극,,,,,,,,,,,37.6115128,127.0595792
대성스포츠센타,헬스/휘트니스,서울특별시 성북구 석관동 화랑로,스트레스 해소; 감정 자극,,,,,,,,,,,37.6115128,127.0595792
케이스크린골프,실내골프/스크린골프,서울특별시 노원구 상계동 동일로,에너지 회복; 스트레스 해소,,,,,,,,,,,,
트윈당구장,당구장,서울특별시 서초구 양재동 마방로10길,스트레스 해소; 감정 자극,,,,,,,,,,,37.4749998,127.0444973
하나탁구센터,탁구장,서울특별시 송파구 거여동 거마로,에너지 회복; 스트레스 해소,,,,,,,,,,,37.497157,127.1463034
뉴하라스포츠센터,스포츠센터,서울특별시 노원구 상계동 동일로,에너지 회복; 스트레스 해소,,,,,,,,,,,,
세븐당구클럽,당구장,서울특별시 광진구 군자동 동일로60길,스트레스 해소; 감정 자극,,,,,,,,,,,37.5580647,127.0750569
월드태권도체육관,지역실내체육관,서울특별시 동작구 사당동 남부순환로269길,에너지 회복; 스트레스 해소,,,,,,,,,,,,
약속당구장,당구장,서울특별시 서대문구 홍은동 명지길,스트레스 해소; 감정 자극,,,,,,,,,,,,
아트당구장,당구장,서울특별시 서초구 서초동 반포대로,스트레스 해소; 감정 자극,,,,,,,,,,,,
서울당구장,당구장,서울특별시 동대문구 답십리동 황물로,스트레스 해소; 감정 자극,,,,,,,,,,,37.5720187,127.048347
고덕골프연습장,실내골프/스크린골프,서울특별시 강동구 고덕동 동남로81길,에너지 회복; 스트레스 해소,,,,,,,,,,,,
티엔디당구장,당구장,서울특별시 종로구 관철동 삼일대로,스트레스 해소; 감정 자극,,,,,,,,,,,37.5711546,126.987675
현대당구장,당구장,서울특별시 동대문구 장안동 한천로24길,스트레스 해소; 감정 자극,,,,,,,,,,,37.570419,127.0669539
준당구장,당구장,서울특별시 서초구 방배동 방배중앙로,스트레스 해소; 감정 자극,,,,,,,,,,,,
유성당구장,당구장,서울특별시 성북구 동소문동3가 보문로39길,스트레스 해소; 감정 자극,,,,,,,,,,,,
양헬스클럽,헬스/휘트니스,서울특별시 영등포구 영등포동6가 영등포로35길,스트레스 해소; 감정 자극,,,,,,,,,,,37.5216798,126.9043896
호산스크린골프,실내골프/스크린골프,서울특별시 은평구 증산동 증산로,에너지 회복; 스트레스 해소,,,,,,,,,,,37.5796258,126.9050122
한남볼링센터,볼링장,서울특별시 용산구 한남동 한남대로,스트레스 해소; 감정 자극,,,,,,,,,,,37.5310578,127.0095218
서광,실내골프/스크린골프,서울특별시 마포구 신수동 광성로,에너지 회복; 스트레스 해소,,,,,,,,,,,37.5507901,126.9331888
극동휘트니스,헬스/휘트니스,서울특별시 서대문구 현저동 독립문공원길,스트레스 해소; 감정 자극,,,,,,,,,,,37.5725739,126.957074
신림스포츠,스포츠센터,서울특별시 관악구 신림동 신림로,에너지 회복; 스트레스 해소,,,,,,,,,,,37.4739083,126.9335176
마운틴당구장,당구장,서울특별시 강남구 대치동 영동대로86길,스트레스 해소; 감정 자극,,,,,,,,,,,,
은평당구장,당구장,서울특별시 은평구 응암동 응암로,스트레스 해소; 감정 자극,,,,,,,,,,,37.5972585,126.9200398
한남2동헬스장,헬스/휘트니스,서울특별시 용산구 한남동 대사관로5길,스트레스 해소; 감정 자극,,,,,,,,,,,37.5350647,127.0005936
슬림38,헬스/휘트니스,서울특별시 강동구 성내동 천호대로,스트레스 해소; 감정 자극,,,,,,,,,,,,
무교스크린,실내골프/스크린골프,서울특별시 중구 다동 다동길,에너지 회복; 스트레스 해소,,,,,,,,,,,37.5677929,126.9809886
오륜태권도,지역실내체육관,서울특별시 동대문구 답십리동 전농로10길,에너지 회복; 스트레스 해소,,,,,,,,,,,,
레츠키즈,지역실내체육관,서울특별시 성북구 길음동 동소문로,에너지 회복; 스트레스 해소,,,,,,,,,,,37.6031858,127.0236174
샹제리제당구장,당구장,서울특별시 강남구 대치동 테헤란로,스트레스 해소; 감정 자극,,,,,,,,,,,,
비전골프,실내골프/스크린골프,서울특별시 중랑구 묵동 신내로21길,에너지 회복; 스트레스 해소,,,,,,,,,,,,
스퀘어짐,헬스/휘트니스,서울특별시 종로구 숭인동 숭인동길,스트레스 해소; 감정 자극,,,,,,,,,,,37.5783171,127.0221981
디엠시스크린골프,실내골프/스크린골프,서울특별시 마포구 상암동 월드컵북로,에너지 회복; 스트레스 해소,,,,,,,,,,,37.5825783,126.8832349
엄지당구장,당구장,서울특별시 영등포구 신길동 도신로,스트레스 해소; 감정 자극,,,,,,,,,,,,
명인당구장,당구장,서울특별시 종로구 계동 계동길,스트레스 해소; 감정 자극,,,,,,,,,,,37.5773923,126.986818
포이스크린골프,실내골프/스크린골프,서울특별시 강남구 개포동 개포로,에너지 회복; 스트레스 해소,,,,,,,,,,,37.489715,127.0695778
시흥당구장,당구장,서울특별시 금천구 시흥동 금하로,스트레스 해소; 감정 자극,,,,,,,,,,,37.4516854,126.9073247
프로당구장,당구장,서울특별시 강남구 대치동 도곡로77길,스트레스 해소; 감정 자극,,,,,,,,,,,,
하오골프스쿨,실내골프/스크린골프,서울특별시 강서구 화곡동 국회대로,에너지 회복; 스트레스 해소,,,,,,,,,,,,
신길탁구장,탁구장,서울특별시 영등포구 신길동 가마산로69가길,에너지 회복; 스트레스 해소,,,,,,,,,,,,
몸휘트니스,헬스/휘트니스,서울특별시 구로구 오류동 경인로23길,스트레스 해소; 감정 자극,,,,,,,,,,,,
윔블던휘트니스,헬스/휘트니스,서울특별시 양천구 신정동 중앙로,스트레스 해소; 감정 자극,,,,,,,,,,,,
금강당구장,당구장,서울특별시 용산구 한강로1가 한강대로62길,스트레스 해소; 감정 자극,,,,,,,,,,,37.5325733,126.9738428
자성헬스클럽,헬스/휘트니스,서울특별시 양천구 목동 목동중앙북로,스트레스 해소; 감정 자극,,,,,,,,,,,,
주노휘트니스,헬스/휘트니스,서울특별시 송파구 석촌동 송파대로37길,스트레스 해소; 감정 자극,,,,,,,,,,,37.5008133,127.1105678
대성당구장,당구장,서울특별시 송파구 석촌동 송파대로37길,스트레스 해소; 감정 자극,,,,,,,,,,,37.5008133,127.1105678
푸른헬스피아,헬스/휘트니스,서울특별시 구로구 구로동 가마산로,스트레스 해소; 감정 자극,,,,,,,,,,,37.488503,126.8810697
라인헬스아카데미,헬스/휘트니스,서울특별시 중랑구 면목동 용마산로,스트레스 해소; 감정 자극,,,,,,,,,,,37.587697,127.095871
한양헬스클럽,헬스/휘트니스,서울특별시 성동구 행당동 왕십리로,스트레스 해소; 감정 자극,,,,,,,,,,,37.5590431,127.0378622
황학정,궁도장,서울특별시 종로구 사직동 사직로9길,안정감; 사회적 연결,,,,,,,,,,,37.5761741,126.966555
공항동문화체육센터,일반수영장,서울특별시 강서구 공항동 송정로,에너지 회복; 안정감,,,,,,,,,,,37.5581086,126.811091
킹콩휘트니스,헬스/휘트니스,서울특별시 강남구 역삼동 강남대로78길,스트레스 해소; 감정 자극,,,,,,,,,,,,
동대문탁구클럽,탁구장,서울특별시 동대문구 이문동 이문로,에너지 회복; 스트레스 해소,,,,,,,,,,,37.5942839,127.0595394
댕큐당구장,당구장,서울특별시 서초구 서초동 서초대로78길,스트레스 해소; 감정 자극,,,,,,,,,,,,
한미당구장,당구장,서울특별시 광진구 중곡동 긴고랑로,스트레스 해소; 감정 자극,,,,,,,,,,,37.5586572,127.0914059
비앤에이치휘트니스클럽,헬스/휘트니스,서울특별시 송파구 가락동 동남로,스트레스 해소; 감정 자극,,,,,,,,,,,,
천마체육관,지역실내체육관,서울특별시 동작구 노량진동 노량진로6길,에너지 회복; 스트레스 해소,,,,,,,,,,,,
위너스파크,실내골프/스크린골프,서울특별시 성동구 행당동 왕십리광장로,에너지 회복; 스트레스 해소,,,,,,,,,,,37.5588568,127.0387162
구민테니스사무소,테니스장,서울특별시 마포구 망원동 동교로1길,에너지 회복; 스트레스 해소,,,,,,,,,,,,
복당구장,당구장,서울특별시 종로구 신문로2가 새문안로,스트레스 해소; 감정 자극,,,,,,,,,,,37.5700017,126.972033
동영휘트니스클럽,헬스/휘트니스,서울특별시 강남구 역삼동 언주로,스트레스 해소; 감정 자극,,,,,,,,,,,37.4963919,127.0458068
에이샵스크린골프,실내골프/스크린골프,서울특별시 관악구 신림동 남부순환로,에너지 회복; 스트레스 해소,,,,,,,,,,,37.4842956,126.9298124
JS골프,실내골프/스크린골프,서울특별시 구로구 고척동 경인로,에너지 회복; 스트레스 해소,,,,,,,,,,,37.4975857,126.8637132
도토리짐휘트니스센터,헬스/휘트니스,서울특별시 강남구 논현동 논현로,스트레스 해소; 감정 자극,,,,,,,,,,,37.5154155,127.0300294
용문체육관,지역실내체육관,서울특별시 성북구 안암동2가 고려대로11길,에너지 회복; 스트레스 해소,,,,,,,,,,,37.588005,127.0214041
숀리체인지업바디스쿨피티에이,헬스/휘트니스,서울특별시 강남구 논현동 논현로116길,스트레스 해소; 감정 자극,,,,,,,,,,,,
대명골프,실내골프/스크린골프,서울특별시 중랑구 신내동 봉화산로56길,에너지 회복; 스트레스 해소,,,,,,,,,,,,
태준골프아카데미,실내골프/스크린골프,서울특별시 서초구 서초동 서초중앙로24길,에너지 회복; 스트레스 해소,,,,,,,,,,,,
원도체육관,지역실내체육관,서울특별시 서초구 서초동 서초중앙로24길,에너지 회복; 스트레스 해소,,,,,,,,,,,,
이글스포츠센터,스포츠센터,서울특별시 서대문구 연희동 성산로17길,에너지 회복; 스트레스 해소,,,,,,,,,,,37.5634924,126.9323208
힐당구장,당구장,서울특별시 강남구 대치동 영동대로86길,스트레스 해소; 감정 자극,,,,,,,,,,,,
파스칼스크린,실내골프/스크린골프,서울특별시 강북구 번동 덕릉로,에너지 회복; 스트레스 해소,,,,,,,,,,,37.6345965,127.0306856
골프프린스스크린골프장,실내골프/스크린골프,서울특별시 송파구 송파동 백제고분로,에너지 회복; 스트레스 해소,,,,,,,,,,,37.505458,127.1074538
경희헬스,헬스/휘트니스,서울특별시 동작구 사당동 동작대로,스트레스 해소; 감정 자극,,,,,,,,,,,,
서원골프스쿨,실내골프/스크린골프,서울특별시 도봉구 도봉동 도봉로181길,에너지 회복; 스트레스 해소,,,,,,,,,,,37.6852705,127.0420484
삼원당구장,당구장,서울특별시 영등포구 당산동6가 양평로,스트레스 해소; 감정 자극,,,,,,,,,,,37.5388277,126.8911509
샤인스크린골프,실내골프/스크린골프,서울특별시 구로구 오류동 경인로,에너지 회복; 스트레스 해소,,,,,,,,,,,37.4911523,126.8298122
허리우드당구장,당구장,서울특별시 강남구 도곡동 도곡로,스트레스 해소; 감정 자극,,,,,,,,,,,37.4932782,127.0437644
팔팔당구장,당구장,서울특별시 은평구 수색동 수색로16길,스트레스 해소; 감정 자극,,,,,,,,,,,37.5826791,126.8954587
공원스크린골프,실내골프/스크린골프,서울특별시 영등포구 당산동3가 양산로19길,에너지 회복; 스트레스 해소,,,,,,,,,,,37.5254965,126.8950827
구슬모아당구장,당구장,서울특별시 용산구 원효로2가 원효로48길,스트레스 해소; 감정 자극,,,,,,,,,,,37.5342239,126.9609991
옴니레포츠월드,스포츠센터,서울특별시 노원구 중계동 섬밭로,에너지 회복; 스트레스 해소,,,,,,,,,,,,
고려체육관,지역실내체육관,서울특별시 은평구 대조동 연서로18가길,에너지 회복; 스트레스 해소,,,,,,,,,,,37.6128233,126.9201748
프라이어휘트니스,헬스/휘트니스,서울특별시 강남구 역삼동 도곡로,스트레스 해소; 감정 자극,,,,,,,,,,,,
전망대당구장,당구장,서울특별시 관악구 신림동 남부순환로,스트레스 해소; 감정 자극,,,,,,,,,,,37.4842956,126.9298124
삼거리당구장,당구장,서울특별시 중구 황학동 퇴계로,스트레스 해소; 감정 자극,,,,,,,,,,,37.5656688,127.0220058
블루휘트니스,헬스/휘트니스,서울특별시 관악구 봉천동 봉천로,스트레스 해소; 감정 자극,,,,,,,,,,,37.4826787,126.9495443
우정당구장,당구장,서울특별시 성동구 행당동 왕십리로21길,스트레스 해소; 감정 자극,,,,,,,,,,,37.5598419,127.0317946
에이비시당구장,당구장,서울특별시 중랑구 상봉동 망우로30길,스트레스 해소; 감정 자극,,,,,,,,,,,,
하호휘트니스클럽,헬스/휘트니스,서울특별시 강동구 길동 양재대로124길,스트레스 해소; 감정 자극,,,,,,,,,,,37.5417635,127.1462036
다지기에듀짐,헬스/휘트니스,서울특별시 양천구 목동 등촌로,스트레스 해소; 감정 자극,,,,,,,,,,,,
대학당구장,당구장,서울특별시 광진구 화양동 아차산로33길,스트레스 해소; 감정 자극,,,,,,,,,,,37.5418094,127.0705534
스카이휘트니스,헬스/휘트니스,서울특별시 송파구 가락동 오금로,스트레스 해소; 감정 자극,,,,,,,,,,,,
합기도범무관중앙본관,지역실내체육관,서울특별시 성북구 동소문동7가 아리랑로,에너지 회복; 스트레스 해소,,,,,,,,,,,37.5976707,127.0149212
한양스크린골프,실내골프/스크린골프,서울특별시 서초구 반포동 서초중앙로,에너지 회복; 스트레스 해소,,,,,,,,,,,,
그린힐스크린골프,실내골프/스크린골프,서울특별시 금천구 독산동 시흥대로,에너지 회복; 스트레스 해소,,,,,,,,,,,37.4684383,126.8980548
국술원,지역실내체육관,서울특별시 강동구 성내동 강동대로53길,에너지 회복; 스트레스 해소,,,,,,,,,,,,
오성당구장,당구장,서울특별시 영등포구 당산동6가 당산로47길,스트레스 해소; 감정 자극,,,,,,,,,,,,
커브스봉천클럽,헬스/휘트니스,서울특별시 관악구 봉천동 양녕로,스트레스 해소; 감정 자극,,,,,,,,,,,37.485759,126.946929
연당구장,당구장,서울특별시 강남구 신사동 논현로167길,스트레스 해소; 감정 자극,,,,,,,,,,,37.5246297,127.0272139
서경석골프존,실내골프/스크린골프,서울특별시 마포구 용강동 대흥로4길,에너지 회복; 스트레스 해소,,,,,,,,,,,37.5416103,126.9391829
리라탁구클럽,탁구장,서울특별시 도봉구 방학동 방학로,에너지 회복; 스트레스 해소,,,,,,,,,,,,
센트럴휘트니스,헬스/휘트니스,서울특별시 강남구 역삼동 봉은사로4길,스트레스 해소; 감정 자극,,,,,,,,,,,,
아시아나스크린골프,실내골프/스크린골프,서울특별시 영등포구 대림동 대림로,에너지 회복; 스트레스 해소,,,,,,,,,,,37.5019187,126.8968464
미주스포츠센터,스포츠센터,서울특별시 영등포구 문래동6가 선유로,에너지 회복; 스트레스 해소,,,,,,,,,,,37.5194314,126.8893618
명보헬스피아,헬스/휘트니스,서울특별시 중구 인현동1가 마른내로,스트레스 해소; 감정 자극,,,,,,,,,,,37.5646848,126.9948704
세종탁구장,탁구장,서울특별시 마포구 도화동 삼개로5길,에너지 회복; 스트레스 해소,,,,,,,,,,,37.537995,126.9481947
청룡탁구장,탁구장,서울특별시 종로구 종로2가 종로,에너지 회복; 스트레스 해소,,,,,,,,,,,37.5701732,126.987742
엠애슬레틱스퀘어,헬스/휘트니스,서울특별시 강남구 청담동 선릉로,스트레스 해소; 감정 자극,,,,,,,,,,,37.52011,127.0402188
아이리스휘트니스,헬스/휘트니스,서울특별시 서초구 반포동 강남대로,스트레스 해소; 감정 자극,,,,,,,,,,,,
럭키당구장,당구장,서울특별시 광진구 자양동 뚝섬로27길,스트레스 해소; 감정 자극,,,,,,,,,,,,
그린탁구장,탁구장,서울특별시 서초구 서초동 반포대로21길,에너지 회복; 스트레스 해소,,,,,,,,,,,,
에덴에있는휘트니스클럽,헬스/휘트니스,서울특별시 성동구 행당동 고산자로,스트레스 해소; 감정 자극,,,,,,,,,,,37.5644806,127.0363214
낙원당구장,당구장,서울특별시 영등포구 신길동 가마산로61길,스트레스 해소; 감정 자극,,,,,,,,,,,,
대한당구장,당구장,서울특별시 중구 충무로4가 퇴계로,스트레스 해소; 감정 자극,,,,,,,,,,,37.5615873,126.9953997
영당구장,당구장,서울특별시 양천구 신월동 가로공원로,스트레스 해소; 감정 자극,,,,,,,,,,,,
아세아당구장,당구장,서울특별시 성북구 석관동 돌곶이로,스트레스 해소; 감정 자극,,,,,,,,,,,37.6091994,127.0582505
에센휘트니스클럽,헬스/휘트니스,서울특별시 동대문구 장안동 장안벚꽃로,스트레스 해소; 감정 자극,,,,,,,,,,,37.5692171,127.0757114
성대탁구장,탁구장,서울특별시 동작구 상도동 국사봉길,에너지 회복; 스트레스 해소,,,,,,,,,,,,
아센휘트니스헬스클럽,헬스/휘트니스,서울특별시 성동구 금호동4가 독서당로,스트레스 해소; 감정 자극,,,,,,,,,,,37.5467243,127.0190748
타조휘트니스,헬스/휘트니스,서울특별시 관악구 신림동 신림로15길,스트레스 해소; 감정 자극,,,,,,,,,,,,
한숲볼링센터,볼링장,서울특별시 동작구 대방동 여의대방로,스트레스 해소; 감정 자극,,,,,,,,,,,37.5116938,126.925089
서울테니스장,테니스장,서울특별시 영등포구 여의도동 여의대방로,에너지 회복; 스트레스 해소,,,,,,,,,,,,
타워볼링센터,볼링장,서울특별시 중랑구 신내동 봉화산로,스트레스 해소; 감정 자극,,,,,,,,,,,,
숲속의골프,실내골프/스크린골프,서울특별시 강남구 삼성동 삼성로,에너지 회복; 스트레스 해소,,,,,,,,,,,,
스페셜당구장,당구장,서울특별시 중구 신당동 퇴계로86길,스트레스 해소; 감정 자극,,,,,,,,,,,,
센트럴휘트니스클럽,헬스/휘트니스,서울특별시 광진구 중곡동 면목로,스트레스 해소; 감정 자극,,,,,,,,,,,,
맨투맨당구클럽,당구장,서울특별시 노원구 월계동 석계로,스트레스 해소; 감정 자극,,,,,,,,,,,,
해인당구장,당구장,서울특별시 중구 수하동 남대문로10길,스트레스 해소; 감정 자극,,,,,,,,,,,37.567527,126.9841973
중구회현체육센터,지역실내체육관,서울특별시 중구 회현동1가 퇴계로12길,에너지 회복; 스트레스 해소,,,,,,,,,,,37.5580178,126.9822453
동호인테니스협회,테니스장,서울특별시 동대문구 휘경동 망우로,에너지 회복; 스트레스 해소,,,,,,,,,,,37.5899957,127.0624325
동아리당구장,당구장,서울특별시 성동구 사근동 사근동길,스트레스 해소; 감정 자극,,,,,,,,,,,37.5602757,127.0426082
광진헬스클럽,헬스/휘트니스,서울특별시 중랑구 면목동 중랑천로,스트레스 해소; 감정 자극,,,,,,,,,,,,
가이아당구장,당구장,서울특별시 서대문구 창천동 명물길,스트레스 해소; 감정 자극,,,,,,,,,,,,
최박사테니스장,테니스장,서울특별시 용산구 한남동 다산로,에너지 회복; 스트레스 해소,,,,,,,,,,,37.5475261,127.0041144
미화볼링장,볼링장,서울특별시 도봉구 창동 도봉로,스트레스 해소; 감정 자극,,,,,,,,,,,37.6489234,127.0350005
양지당구장,당구장,서울특별시 강남구 삼성동 테헤란로63길,스트레스 해소; 감정 자극,,,,,,,,,,,,
삼보볼링장,볼링장,서울특별시 중랑구 면목동 중랑천로10길,스트레스 해소; 감정 자극,,,,,,,,,,,,
필스크린골프,실내골프/스크린골프,서울특별시 송파구 송파동 가락로,에너지 회복; 스트레스 해소,,,,,,,,,,,37.504081,127.1141497
태양당구장,당구장,서울특별시 용산구 이태원동 회나무로,스트레스 해소; 감정 자극,,,,,,,,,,,37.5403783,126.9944187
파워짐휘트니스,헬스/휘트니스,서울특별시 강서구 내발산동 강서로,스트레스 해소; 감정 자극,,,,,,,,,,,37.5507788,126.8363291
짐80스포츠센터,헬스/휘트니스,서울특별시 강동구 암사동 올림픽로,스트레스 해소; 감정 자극,,,,,,,,,,,37.5553123,127.1294202
파온스크린골프,실내골프/스크린골프,서울특별시 강서구 등촌동 화곡로61길,에너지 회복; 스트레스 해소,,,,,,,,,,,,
스포나인,실내골프/스크린골프,서울특별시 강남구 역삼동 언주로108길,에너지 회복; 스트레스 해소,,,,,,,,,,,,
진24당구장,당구장,서울특별시 강남구 대치동 역삼로,스트레스 해소; 감정 자극,,,,,,,,,,,37.5037829,127.0595421
두바이당구장,당구장,서울특별시 서초구 잠원동 나루터로,스트레스 해소; 감정 자극,,,,,,,,,,,37.5161333,127.0120671
명당구장,당구장,서울특별시 중구 황학동 퇴계로87길,스트레스 해소; 감정 자극,,,,,,,,,,,37.566436,127.0211336
유성스포츠센터,스포츠센터,서울특별시 강남구 신사동 압구정로,에너지 회복; 스트레스 해소,,,,,,,,,,,37.5283635,127.0383787
신촌당구장,당구장,서울특별시 마포구 노고산동 고산길,스트레스 해소; 감정 자극,,,,,,,,,,,,
비룡체육관,지역실내체육관,서울특별시 양천구 목동 오목로,에너지 회복; 스트레스 해소,,,,,,,,,,,,
현대휘트니스,헬스/휘트니스,서울특별시 양천구 목동 오목로,스트레스 해소; 감정 자극,,,,,,,,,,,,
모닝당구장,당구장,서울특별시 강남구 논현동 논현로,스트레스 해소; 감정 자극,,,,,,,,,,,37.5154155,127.0300294
동원당구장,당구장,서울특별시 중랑구 면목동 면목로,스트레스 해소; 감정 자극,,,,,,,,,,,37.5816841,127.0886238
영스포츠클럽,헬스/휘트니스,서울특별시 서초구 잠원동 반포대로,스트레스 해소; 감정 자극,,,,,,,,,,,,
바른체형운동센터,헬스/휘트니스,서울특별시 강남구 압구정동 압구정로29길,스트레스 해소; 감정 자극,,,,,,,,,,,37.5298229,127.0278284
비제이휘트니스센터,헬스/휘트니스,서울특별시 영등포구 여의도동 은행로,스트레스 해소; 감정 자극,,,,,,,,,,,37.5283127,126.9215588
비발디휘트니스,헬스/휘트니스,서울특별시 강북구 미아동 도봉로,스트레스 해소; 감정 자극,,,,,,,,,,,37.6308331,127.024486
티스크린골프,실내골프/스크린골프,서울특별시 서초구 서초동 효령로77길,에너지 회복; 스트레스 해소,,,,,,,,,,,,
제일골프스쿨,실내골프/스크린골프,서울특별시 종로구 내수동 사직로8길,에너지 회복; 스트레스 해소,,,,,,,,,,,37.574107,126.9724134
한신탁구교실,탁구장,서울특별시 서초구 반포동 신반포로,에너지 회복; 스트레스 해소,,,,,,,,,,,37.5044399,126.9996177
목동역스크린골프존,실내골프/스크린골프,서울특별시 양천구 신정동 목동로,에너지 회복; 스트레스 해소,,,,,,,,,,,,
개선문당구장,당구장,서울특별시 종로구 관철동 삼일대로19길,스트레스 해소; 감정 자극,,,,,,,,,,,37.5695674,126.9866905
티지골프스쿨,실내골프/스크린골프,서울특별시 강남구 논현동 선릉로119길,에너지 회복; 스트레스 해소,,,,,,,,,,,,
황금볼당구장,당구장,서울특별시 구로구 궁동 부일로15길,스트레스 해소; 감정 자극,,,,,,,,,,,37.4946574,126.8329128
영휘트니스,헬스/휘트니스,서울특별시 종로구 창신동 율곡로,스트레스 해소; 감정 자극,,,,,,,,,,,,
유니버설휘트니스클럽,헬스/휘트니스,서울특별시 도봉구 쌍문동 도봉로,스트레스 해소; 감정 자극,,,,,,,,,,,,
제주당구장,당구장,서울특별시 동대문구 전농동 서울시립대로,스트레스 해소; 감정 자극,,,,,,,,,,,37.5757778,127.0473586
성원당구장,당구장,서울특별시 구로구 구로동 공원로7길,스트레스 해소; 감정 자극,,,,,,,,,,,,
한겨레체육관,지역실내체육관,서울특별시 도봉구 방학동 도봉로145길,에너지 회복; 스트레스 해소,,,,,,,,,,,,
블랙당구장,당구장,서울특별시 강남구 역삼동 논현로63길,스트레스 해소; 감정 자극,,,,,,,,,,,,
구슬치기당구장,당구장,서울특별시 구로구 개봉동 고척로,스트레스 해소; 감정 자극,,,,,,,,,,,,
월드당구장,당구장,서울특별시 강서구 화곡동 화곡로,스트레스 해소; 감정 자극,,,,,,,,,,,37.5414074,126.8415864
맹호체육관,지역실내체육관,서울특별시 영등포구 양평동1가 영등포로13길,에너지 회복; 스트레스 해소,,,,,,,,,,,37.5237769,126.889201
우주당구장,당구장,서울특별시 동작구 사당동 동작대로,스트레스 해소; 감정 자극,,,,,,,,,,,,
댁크,당구장,서울특별시 마포구 동교동 홍익로6길,스트레스 해소; 감정 자극,,,,,,,,,,,37.5570244,126.9251895
가리온당구장,당구장,서울특별시 강남구 대치동 삼성로85길,스트레스 해소; 감정 자극,,,,,,,,,,,,
크로바볼링장,볼링장,서울특별시 금천구 독산동 시흥대로,스트레스 해소; 감정 자극,,,,,,,,,,,37.4684383,126.8980548
장안탁구클럽,탁구장,서울특별시 동대문구 장안동 ,에너지 회복; 스트레스 해소,,,,,,,,,,,37.57105,127.06806
미도파당구장,당구장,서울특별시 노원구 상계동 동일로,스트레스 해소; 감정 자극,,,,,,,,,,,,
산업은행,테니스장,서울특별시 성북구 안암동4가 안암로7길,에너지 회복; 스트레스 해소,,,,,,,,,,,37.5802229,127.024568
이조은스크린골프존,실내골프/스크린골프,서울특별시 양천구 신월동 화곡로,에너지 회복; 스트레스 해소,,,,,,,,,,,37.5395238,126.8276036
노화자탁구교실,탁구장,서울특별시 서초구 양재동 동산로,에너지 회복; 스트레스 해소,,,,,,,,,,,37.469484,127.0411734
가든당구장,당구장,서울특별시 동대문구 장안동 장한로24길,스트레스 해소; 감정 자극,,,,,,,,,,,,
원당구장,당구장,서울특별시 송파구 마천동 마천로45길,스트레스 해소; 감정 자극,,,,,,,,,,,37.4983562,127.1510792
그랑프리골프존,실내골프/스크린골프,서울특별시 노원구 상계동 수락산로,에너지 회복; 스트레스 해소,,,,,,,,,,,37.6651826,127.072442
휴맥스휘트니스클럽,헬스/휘트니스,서울특별시 동대문구 장안동 장한로,스트레스 해소; 감정 자극,,,,,,,,,,,,
성원상떼휘트니스,헬스/휘트니스,서울특별시 성동구 옥수동 독서당로,스트레스 해소; 감정 자극,,,,,,,,,,,37.5420231,127.0116166
슈퍼당구장,당구장,서울특별시 서대문구 창천동 연세로5가길,스트레스 해소; 감정 자극,,,,,,,,,,,,
탑휘트니스클럽,헬스/휘트니스,서울특별시 관악구 신림동 난곡로,스트레스 해소; 감정 자극,,,,,,,,,,,,
포커스당구장서비스,당구장,서울특별시 강동구 고덕동 고덕로,스트레스 해소; 감정 자극,,,,,,,,,,,37.556037,127.1455687
안암탁구클럽,탁구장,서울특별시 성북구 안암동5가 고려대로24길,에너지 회복; 스트레스 해소,,,,,,,,,,,37.5844918,127.0294459
우성스크린골프,실내골프/스크린골프,서울특별시 서초구 방배동 방배천로,에너지 회복; 스트레스 해소,,,,,,,,,,,,
에이스당구장,당구장,서울특별시 강남구 개포동 선릉로6길,스트레스 해소; 감정 자극,,,,,,,,,,,37.4829974,127.0621169
지엠골프,실내골프/스크린골프,서울특별시 광진구 자양동 뚝섬로33길,에너지 회복; 스트레스 해소,,,,,,,,,,,37.5361174,127.0698389
봉이휘트니스클럽,헬스/휘트니스,서울특별시 성북구 종암동 종암로,스트레스 해소; 감정 자극,,,,,,,,,,,37.599462,127.0342569
그랜드스크린골프,실내골프/스크린골프,서울특별시 강서구 등촌동 공항대로41길,에너지 회복; 스트레스 해소,,,,,,,,,,,,
중앙당구장,당구장,서울특별시 중구 명동2가 남대문로,스트레스 해소; 감정 자극,,,,,,,,,,,37.5620071,126.9819568
제이제이당구장,당구장,서울특별시 강서구 화곡동 곰달래로,스트레스 해소; 감정 자극,,,,,,,,,,,,
킹당구장,당구장,서울특별시 중랑구 면목동 용마산로,스트레스 해소; 감정 자극,,,,,,,,,,,37.587697,127.095871
아트스크린골프,실내골프/스크린골프,서울특별시 마포구 성산동 월드컵로,에너지 회복; 스트레스 해소,,,,,,,,,,,37.565398,126.9014552
강북볼링센터,볼링장,서울특별시 강북구 번동 도봉로,스트레스 해소; 감정 자극,,,,,,,,,,,,
서교당구장,당구장,서울특별시 마포구 서교동 와우산로,스트레스 해소; 감정 자극,,,,,,,,,,,37.5564843,126.9309958
리더스스크린골프,실내골프/스크린골프,서울특별시 금천구 가산동 벚꽃로,에너지 회복; 스트레스 해소,,,,,,,,,,,37.4811345,126.8832068
공공탁구장,탁구장,서울특별시 양천구 목동 목동중앙로,에너지 회복; 스트레스 해소,,,,,,,,,,,37.5357127,126.8704635
이글스크린,실내골프/스크린골프,서울특별시 서초구 방배동 효령로,에너지 회복; 스트레스 해소,,,,,,,,,,,37.4821306,127.0015505
중부골프헬스클럽,실내골프/스크린골프,서울특별시 중구 오장동 동호로33길,에너지 회복; 스트레스 해소,,,,,,,,,,,37.5654058,127.0006531
현대레포츠스쿨,스포츠센터,서울특별시 도봉구 방학동 도당로,에너지 회복; 스트레스 해소,,,,,,,,,,,37.666259,127.0380315
굿샷스크린골프,실내골프/스크린골프,서울특별시 영등포구 대림동 대림로,에너지 회복; 스트레스 해소,,,,,,,,,,,37.5019187,126.8968464
유로파당구장,당구장,서울특별시 강서구 등촌동 강서로56가길,스트레스 해소; 감정 자극,,,,,,,,,,,,
아이엠지스포츠센터,지역체육센터,서울특별시 구로구 구로동 경인로,에너지 회복; 스트레스 해소,,,,,,,,,,,37.5003017,126.8758793
청수당구장,당구장,서울특별시 강남구 논현동 학동로43길,스트레스 해소; 감정 자극,,,,,,,,,,,,
스피드,당구장,서울특별시 서초구 방배동 방배로,스트레스 해소; 감정 자극,,,,,,,,,,,37.4783113,126.9997061
서울시티클럽휘트니스,헬스/휘트니스,서울특별시 영등포구 여의도동 여의공원로,스트레스 해소; 감정 자극,,,,,,,,,,,37.5286422,126.924813
월드짐휘트니스센터,헬스/휘트니스,서울특별시 영등포구 여의도동 63로,스트레스 해소; 감정 자극,,,,,,,,,,,,
드림헬스,헬스/휘트니스,서울특별시 중랑구 묵동 공릉로2길,스트레스 해소; 감정 자극,,,,,,,,,,,37.6121011,127.0796016
공때리네,당구장,서울특별시 금천구 가산동 범안로,스트레스 해소; 감정 자극,,,,,,,,,,,37.4656449,126.8881632
뉴청룡볼링장,볼링장,서울특별시 용산구 갈월동 한강대로,스트레스 해소; 감정 자극,,,,,,,,,,,37.5446302,126.9719792
영춘권수련원,지역실내체육관,서울특별시 마포구 서교동 동교로,에너지 회복; 스트레스 해소,,,,,,,,,,,37.5596547,126.9240477
짱휘트니스,헬스/휘트니스,서울특별시 강동구 성내동 강동대로53길,스트레스 해소; 감정 자극,,,,,,,,,,,,
챔프당구장,당구장,서울특별시 성동구 마장동 마장로29길,스트레스 해소; 감정 자극,,,,,,,,,,,37.5688544,127.0365448
지안메디포츠,스포츠센터,서울특별시 강남구 대치동 선릉로,에너지 회복; 스트레스 해소,,,,,,,,,,,,
한국탁구클럽,탁구장,서울특별시 서초구 방배동 방배천로,에너지 회복; 스트레스 해소,,,,,,,,,,,,
아카데미당구장,당구장,서울특별시 종로구 낙원동 수표로,스트레스 해소; 감정 자극,,,,,,,,,,,37.5715103,126.989201
한성당구장,당구장,서울특별시 중구 흥인동 퇴계로81길,스트레스 해소; 감정 자극,,,,,,,,,,,37.5677014,127.0175989
헬스존,헬스/휘트니스,서울특별시 마포구 공덕동 만리재로,스트레스 해소; 감정 자극,,,,,,,,,,,37.5473549,126.9581789
선당구장,당구장,서울특별시 강동구 성내동 양재대로89길,스트레스 해소; 감정 자극,,,,,,,,,,,,
예일당구장,당구장,서울특별시 동대문구 장안동 천호대로77길,스트레스 해소; 감정 자극,,,,,,,,,,,37.5647283,127.0625429
휘트니스링크,헬스/휘트니스,서울특별시 동대문구 전농동 사가정로,스트레스 해소; 감정 자극,,,,,,,,,,,37.5747671,127.0536195
아이짐헬스,헬스/휘트니스,서울특별시 서초구 서초동 효령로,스트레스 해소; 감정 자극,,,,,,,,,,,37.4845119,127.0174076
제이골프스쿨,실내골프/스크린골프,서울특별시 광진구 구의동 광나루로,에너지 회복; 스트레스 해소,,,,,,,,,,,37.5455283,127.0863484
멀티짐휘트니스코리아,헬스/휘트니스,서울특별시 서대문구 대현동 신촌역로,스트레스 해소; 감정 자극,,,,,,,,,,,37.5584469,126.9425086
동아볼링센터,볼링장,서울특별시 종로구 숭인동 종로,스트레스 해소; 감정 자극,,,,,,,,,,,37.5736453,127.0165769
스윙파크스크린골프장,실내골프/스크린골프,서울특별시 구로구 구로동 디지털로32나길,에너지 회복; 스트레스 해소,,,,,,,,,,,,
구슬방당구장,당구장,서울특별시 도봉구 창동 마들로11가길,스트레스 해소; 감정 자극,,,,,,,,,,,,
한일당구장,당구장,서울특별시 종로구 인의동 종로,스트레스 해소; 감정 자극,,,,,,,,,,,37.5706049,126.994587
로터리당구장,당구장,서울특별시 동대문구 이문동 이문로,스트레스 해소; 감정 자극,,,,,,,,,,,37.5942839,127.0595394
우성당구장,당구장,서울특별시 서초구 방배동 방배천로,스트레스 해소; 감정 자극,,,,,,,,,,,,
성림당구장,당구장,서울특별시 중구 을지로4가 을지로,스트레스 해소; 감정 자극,,,,,,,,,,,37.5662957,126.9900691
골드스크린골프존,실내골프/스크린골프,서울특별시 마포구 도화동 마포대로,에너지 회복; 스트레스 해소,,,,,,,,,,,37.5367823,126.9418272
파아란바다,요트장,서울특별시 강남구 신사동 도산대로25길,스트레스 해소; 감정 자극,,,,,,,,,,,37.5213326,127.026831
북악스크린골프,실내골프/스크린골프,서울특별시 성북구 성북동 성북로,에너지 회복; 스트레스 해소,,,,,,,,,,,37.59439,126.9925934
뉴스타헬스클럽,헬스/휘트니스,서울특별시 도봉구 방학동 도당로13길,스트레스 해소; 감정 자극,,,,,,,,,,,37.6661204,127.0347163
자코당구장,당구장,서울특별시 동대문구 장안동 장한로,스트레스 해소; 감정 자극,,,,,,,,,,,,
충무태권도,지역실내체육관,서울특별시 중구 묵정동 퇴계로50가길,에너지 회복; 스트레스 해소,,,,,,,,,,,,
애플짐,헬스/휘트니스,서울특별시 강서구 내발산동 강서로,스트레스 해소; 감정 자극,,,,,,,,,,,37.5507788,126.8363291
프로투당구장,당구장,서울특별시 영등포구 당산동3가 당산로,스트레스 해소; 감정 자극,,,,,,,,,,,37.5252518,126.8965569
Y앤K휘트니스클럽,헬스/휘트니스,서울특별시 서초구 양재동 논현로,스트레스 해소; 감정 자극,,,,,,,,,,,,
수서스크린골프존,실내골프/스크린골프,서울특별시 강남구 수서동 광평로51길,에너지 회복; 스트레스 해소,,,,,,,,,,,37.4900792,127.1014586
굿샷스크린골프존,실내골프/스크린골프,서울특별시 양천구 목동 오목로,에너지 회복; 스트레스 해소,,,,,,,,,,,,
은하당구장,당구장,서울특별시 영등포구 여의도동 국제금융로,스트레스 해소; 감정 자극,,,,,,,,,,,37.5209509,126.9318158
도봉실내수영장,일반수영장,서울특별시 도봉구 도봉동 도봉로180나길,에너지 회복; 안정감,,,,,,,,,,,,
뉴서울당구장,당구장,서울특별시 중구 태평로2가 서소문로,스트레스 해소; 감정 자극,,,,,,,,,,,37.5620526,126.9703344
대원헬스,헬스/휘트니스,서울특별시 광진구 중곡동 면목로,스트레스 해소; 감정 자극,,,,,,,,,,,,
반포스크린골프,실내골프/스크린골프,서울특별시 서초구 반포동 고무래로,에너지 회복; 스트레스 해소,,,,,,,,,,,,
궁동스크린골프,실내골프/스크린골프,서울특별시 구로구 궁동 부일로,에너지 회복; 스트레스 해소,,,,,,,,,,,,
21세기헬스,헬스/휘트니스,서울특별시 송파구 거여동 양산로,스트레스 해소; 감정 자극,,,,,,,,,,,37.4915898,127.1437623
메트로짐,헬스/휘트니스,서울특별시 구로구 구로동 구로동로,스트레스 해소; 감정 자극,,,,,,,,,,,37.4860547,126.8855838
이튼스크린골프,실내골프/스크린골프,서울특별시 광진구 자양동 능동로,에너지 회복; 스트레스 해소,,,,,,,,,,,37.5375517,127.0696332
타이거즈당구장,당구장,서울특별시 성북구 안암동5가 개운사길,스트레스 해소; 감정 자극,,,,,,,,,,,37.5896432,127.030019
우이볼링장,볼링장,서울특별시 강북구 수유동 삼양로,스트레스 해소; 감정 자극,,,,,,,,,,,37.6353867,127.0170277
아탑휘트니스,헬스/휘트니스,서울특별시 도봉구 방학동 방학로,스트레스 해소; 감정 자극,,,,,,,,,,,,
제이엔비레포츠클럽,헬스/휘트니스,서울특별시 송파구 풍납동 토성로,스트레스 해소; 감정 자극,,,,,,,,,,,37.5297467,127.1148779
뉴황제스크린골프,실내골프/스크린골프,서울특별시 동작구 사당동 동작대로25길,에너지 회복; 스트레스 해소,,,,,,,,,,,37.4846169,126.9794192
월드휘트니스,헬스/휘트니스,서울특별시 마포구 염리동 독막로,스트레스 해소; 감정 자극,,,,,,,,,,,37.5447824,126.9457929
대진체육관,지역실내체육관,서울특별시 강남구 개포동 개포로109길,에너지 회복; 스트레스 해소,,,,,,,,,,,,
아메리카휘트니스,헬스/휘트니스,서울특별시 강남구 대치동 테헤란로,스트레스 해소; 감정 자극,,,,,,,,,,,,
자메이카휘트니스,헬스/휘트니스,서울특별시 관악구 봉천동 남부순환로,스트레스 해소; 감정 자극,,,,,,,,,,,37.482104,126.9491729
르네상스휘트니스클럽,헬스/휘트니스,서울특별시 송파구 오금동 오금로,스트레스 해소; 감정 자극,,,,,,,,,,,37.5026783,127.1271012
선미체육관,지역실내체육관,서울특별시 금천구 시흥동 시흥대로51길,에너지 회복; 스트레스 해소,,,,,,,,,,,,
해와달스크린골프존,실내골프/스크린골프,서울특별시 강서구 화곡동 화곡로,에너지 회복; 스트레스 해소,,,,,,,,,,,37.5414074,126.8415864
엠케이당구장,당구장,서울특별시 중구 신당동 동호로,스트레스 해소; 감정 자극,,,,,,,,,,,,
거룡체육관,지역실내체육관,서울특별시 중랑구 면목동 면목로,에너지 회복; 스트레스 해소,,,,,,,,,,,37.5816841,127.0886238
복지탁구장,탁구장,서울특별시 서대문구 창천동 연세로,에너지 회복; 스트레스 해소,,,,,,,,,,,,
유에프오포켓볼,당구장,서울특별시 종로구 명륜4가 대명길,스트레스 해소; 감정 자극,,,,,,,,,,,37.5833284,127.0003038
코리아휘트니스,헬스/휘트니스,서울특별시 영등포구 신길동 영등포로72길,스트레스 해소; 감정 자극,,,,,,,,,,,,
엔비다이버스,요트장,서울특별시 송파구 잠실동 백제고분로7길,스트레스 해소; 감정 자극,,,,,,,,,,,,
스와시휘트니스클럽,헬스/휘트니스,서울특별시 마포구 동교동 연희로,스트레스 해소; 감정 자극,,,,,,,,,,,37.5587273,126.9268573
맥스토탈휘트니스,헬스/휘트니스,서울특별시 광진구 화양동 아차산로,스트레스 해소; 감정 자극,,,,,,,,,,,37.5407462,127.0684171
이소영탁구교실,탁구장,서울특별시 동작구 상도동 상도로15길,에너지 회복; 스트레스 해소,,,,,,,,,,,,
종암스크린골프스쿨,실내골프/스크린골프,서울특별시 성북구 종암동 종암로,에너지 회복; 스트레스 해소,,,,,,,,,,,37.599462,127.0342569
한남스크린골프,실내골프/스크린골프,서울특별시 용산구 한남동 한남대로,에너지 회복; 스트레스 해소,,,,,,,,,,,37.5333924,127.0076863
정윤재헬스클럽,헬스/휘트니스,서울특별시 도봉구 쌍문동 삼양로,스트레스 해소; 감정 자극,,,,,,,,,,,,
알통맨휘트니스클럽,헬스/휘트니스,서울특별시 강남구 개포동 논현로,스트레스 해소; 감정 자극,,,,,,,,,,,,
포임스포츠클럽,헬스/휘트니스,서울특별시 영등포구 대림동 대림로,스트레스 해소; 감정 자극,,,,,,,,,,,37.5019187,126.8968464
명동당구장,당구장,서울특별시 강북구 수유동 인수봉로77길,스트레스 해소; 감정 자극,,,,,,,,,,,,
라스포짐,헬스/휘트니스,서울특별시 강북구 번동 도봉로,스트레스 해소; 감정 자극,,,,,,,,,,,,
스마트빌리아드,당구장,서울특별시 은평구 녹번동 서오릉로2길,스트레스 해소; 감정 자극,,,,,,,,,,,37.6023665,126.9274655
째즈당구장,당구장,서울특별시 강동구 명일동 동남로75길,스트레스 해소; 감정 자극,,,,,,,,,,,37.5543187,127.1549112
동작탁구교실,탁구장,서울특별시 동작구 흑석동 현충로,에너지 회복; 스트레스 해소,,,,,,,,,,,37.5109655,126.9617918
코리아탁구당구장,당구장,서울특별시 은평구 응암동 은평로,스트레스 해소; 감정 자극,,,,,,,,,,,,
한병규탁구클럽,탁구장,서울특별시 노원구 상계동 상계로1길,에너지 회복; 스트레스 해소,,,,,,,,,,,,
그린스크린골프,실내골프/스크린골프,서울특별시 노원구 중계동 한글비석로,에너지 회복; 스트레스 해소,,,,,,,,,,,,
용인대풍납태권도,지역실내체육관,서울특별시 송파구 풍납동 풍성로,에너지 회복; 스트레스 해소,,,,,,,,,,,37.5343091,127.1170341
가나당구장,당구장,서울특별시 서초구 양재동 남부순환로356길,스트레스 해소; 감정 자극,,,,,,,,,,,,
나라휘트니스센터,헬스/휘트니스,서울특별시 강남구 신사동 압구정로,스트레스 해소; 감정 자극,,,,,,,,,,,37.5283635,127.0383787
골든짐스포츠,헬스/휘트니스,서울특별시 중구 장충동1가 장충단로,스트레스 해소; 감정 자극,,,,,,,,,,,37.5622474,127.0064864
골든베어스크린골프장,실내골프/스크린골프,서울특별시 동작구 사당동 사당로,에너지 회복; 스트레스 해소,,,,,,,,,,,37.4858226,126.9698251
올림푸스당구장,당구장,서울특별시 관악구 신림동 신림로,스트레스 해소; 감정 자극,,,,,,,,,,,37.4717581,126.9335007
귀빈당구장,당구장,서울특별시 중구 을지로2가 삼일대로12길,스트레스 해소; 감정 자극,,,,,,,,,,,37.5667238,126.9886515
라이브스크린골프,실내골프/스크린골프,서울특별시 강서구 마곡동 공항대로,에너지 회복; 스트레스 해소,,,,,,,,,,,,
V트렁크헬스클럽,헬스/휘트니스,서울특별시 서초구 우면동 바우뫼로7길,스트레스 해소; 감정 자극,,,,,,,,,,,37.4713458,127.0245034
백호체육관,지역실내체육관,서울특별시 금천구 시흥동 독산로35길,에너지 회복; 스트레스 해소,,,,,,,,,,,,
오류테니스장,테니스장,서울특별시 구로구 오류동 오리로,에너지 회복; 스트레스 해소,,,,,,,,,,,37.4884195,126.8365683
오케이당구장,당구장,서울특별시 강남구 일원동 일원로9길,스트레스 해소; 감정 자극,,,,,,,,,,,,
공릉탁구클럽,탁구장,서울특별시 노원구 공릉동 동일로,에너지 회복; 스트레스 해소,,,,,,,,,,,,
허미스남여헬스,헬스/휘트니스,서울특별시 강북구 번동 오현로32길,스트레스 해소; 감정 자극,,,,,,,,,,,,
오렌지당구장,당구장,서울특별시 영등포구 여의도동 국제금융로,스트레스 해소; 감정 자극,,,,,,,,,,,37.5209509,126.9318158
신천스크린골프,실내골프/스크린골프,서울특별시 송파구 잠실동 백제고분로17길,에너지 회복; 스트레스 해소,,,,,,,,,,,,
가산당구장,당구장,서울특별시 금천구 가산동 가산디지털1로,스트레스 해소; 감정 자극,,,,,,,,,,,37.4776652,126.8827945
다빈치당구장,당구장,서울특별시 강동구 암사동 상암로,스트레스 해소; 감정 자극,,,,,,,,,,,,
K2당구장,당구장,서울특별시 강동구 명일동 동남로75길,스트레스 해소; 감정 자극,,,,,,,,,,,37.5543187,127.1549112
이촌스크린골프존,실내골프/스크린골프,서울특별시 용산구 이촌동 이촌로64길,에너지 회복; 스트레스 해소,,,,,,,,,,,,
SP당구장,당구장,서울특별시 강남구 수서동 광평로56길,스트레스 해소; 감정 자극,,,,,,,,,,,37.4871329,127.1040775
칸짐,헬스/휘트니스,서울특별시 강남구 역삼동 도곡로,스트레스 해소; 감정 자극,,,,,,,,,,,,
이글휘트니스센터,헬스/휘트니스,서울특별시 서대문구 창천동 연세로,스트레스 해소; 감정 자극,,,,,,,,,,,,
탑당구장,당구장,서울특별시 관악구 신림동 신림로,스트레스 해소; 감정 자극,,,,,,,,,,,37.4717581,126.9335007
더블유플러스휘트니스센터,헬스/휘트니스,서울특별시 강남구 논현동 논현로,스트레스 해소; 감정 자극,,,,,,,,,,,37.5154155,127.0300294
태광스쿼시클럽,스포츠센터,서울특별시 강서구 내발산동 강서로52길,에너지 회복; 스트레스 해소,,,,,,,,,,,37.5576279,126.840941
실내낚시터,실내낚시터,서울특별시 은평구 대조동 서오릉로,안정감; 감정 정화,,,,,,,,,,,37.6101479,126.9190402
혜우볼링센터,볼링장,서울특별시 서대문구 대현동 신촌역로,스트레스 해소; 감정 자극,,,,,,,,,,,37.5584469,126.9425086
베스트당구장,당구장,서울특별시 중구 신당동 다산로11길,스트레스 해소; 감정 자극,,,,,,,,,,,,
건영옴니수영장,일반수영장,서울특별시 노원구 중계동 섬밭로,에너지 회복; 안정감,,,,,,,,,,,,
신성당구장,당구장,서울특별시 광진구 자양동 자양로,스트레스 해소; 감정 자극,,,,,,,,,,,,
청마휘트니스,헬스/휘트니스,서울특별시 도봉구 창동 도봉로110길,스트레스 해소; 감정 자극,,,,,,,,,,,37.6462016,127.0364311
세란골프,실내골프/스크린골프,서울특별시 종로구 무악동 통일로,에너지 회복; 스트레스 해소,,,,,,,,,,,37.5779642,126.9546851
동아탁구클럽,탁구장,서울특별시 노원구 상계동 덕릉로,에너지 회복; 스트레스 해소,,,,,,,,,,,,
일신스포츠,헬스/휘트니스,서울특별시 마포구 도화동 삼개로,스트레스 해소; 감정 자극,,,,,,,,,,,37.5401553,126.9473095
나노체육시설운영,일반수영장,서울특별시 서대문구 남가좌동 증가로,에너지 회복; 안정감,,,,,,,,,,,37.5758721,126.9254361
석금당구장,당구장,서울특별시 성동구 마장동 ,스트레스 해소; 감정 자극,,,,,,,,,,,37.56743,127.04045
하이런,당구장,서울특별시 양천구 신정동 중앙로,스트레스 해소; 감정 자극,,,,,,,,,,,,
고려당구장,당구장,서울특별시 성북구 안암동5가 안암로9가길,스트레스 해소; 감정 자극,,,,,,,,,,,37.5811591,127.0266126
그린샷스크린골프,실내골프/스크린골프,서울특별시 도봉구 도봉동 도봉로,에너지 회복; 스트레스 해소,,,,,,,,,,,37.6743759,127.044344
삼호골프스크린,실내골프/스크린골프,서울특별시 강남구 개포동 논현로,에너지 회복; 스트레스 해소,,,,,,,,,,,,
킹왕짱당구클럽,당구장,서울특별시 성동구 행당동 마조로,스트레스 해소; 감정 자극,,,,,,,,,,,,
그므레,실내골프/스크린골프,서울특별시 동대문구 휘경동 이문로,에너지 회복; 스트레스 해소,,,,,,,,,,,,
삼성골드스포츠클럽,일반수영장,서울특별시 서대문구 남가좌동 증가로,에너지 회복; 안정감,,,,,,,,,,,37.5758721,126.9254361
망원당구장,당구장,서울특별시 마포구 망원동 포은로,스트레스 해소; 감정 자극,,,,,,,,,,,,
흥봉헬스클럽,헬스/휘트니스,서울특별시 노원구 상계동 한글비석로44길,스트레스 해소; 감정 자극,,,,,,,,,,,37.6644933,127.0705301
미진수영장,일반수영장,서울특별시 양천구 신정동 신목로,에너지 회복; 안정감,,,,,,,,,,,,
풀스윙스크린골프,실내골프/스크린골프,서울특별시 강남구 삼성동 테헤란로87길,에너지 회복; 스트레스 해소,,,,,,,,,,,37.5086166,127.0589795
용산탁구클럽,탁구장,서울특별시 용산구 원효로2가 원효로,에너지 회복; 스트레스 해소,,,,,,,,,,,37.5354634,126.9618637
하바나스크린골프,실내골프/스크린골프,서울특별시 강북구 미아동 도봉로,에너지 회복; 스트레스 해소,,,,,,,,,,,37.6308331,127.024486
클럽I앤J헬스클럽,스포츠센터,서울특별시 강남구 압구정동 ,에너지 회복; 스트레스 해소,,,,,,,,,,,37.5300432,127.0313346
독수리체육관,지역실내체육관,서울특별시 금천구 독산동 가산로3길,에너지 회복; 스트레스 해소,,,,,,,,,,,,
서소문당구장,당구장,서울특별시 중구 서소문동 서소문로,스트레스 해소; 감정 자극,,,,,,,,,,,37.5620526,126.9703344
비비,당구장,서울특별시 강남구 삼성동 테헤란로107길,스트레스 해소; 감정 자극,,,,,,,,,,,,
현대볼링장,볼링장,서울특별시 중랑구 신내동 용마산로129나길,스트레스 해소; 감정 자극,,,,,,,,,,,,
수정당구장,당구장,서울특별시 성동구 성수동1가 왕십리로4길,스트레스 해소; 감정 자극,,,,,,,,,,,37.5455845,127.0453108
월드짐,헬스/휘트니스,서울특별시 마포구 합정동 독막로6길,스트레스 해소; 감정 자극,,,,,,,,,,,37.547083,126.9172629
월드컵당구장,당구장,서울특별시 구로구 개봉동 남부순환로97길,스트레스 해소; 감정 자극,,,,,,,,,,,37.4940353,126.8584457
대우훼밀리골프,실내골프/스크린골프,서울특별시 양천구 신월동 월정로50길,에너지 회복; 스트레스 해소,,,,,,,,,,,,
선골프연습장,실내골프/스크린골프,서울특별시 성동구 성수동2가 성덕정길,에너지 회복; 스트레스 해소,,,,,,,,,,,37.5371012,127.0576727
